{
  "name": "COLBOURNE RES (BONNIE)",
  "address": "60707 GOLF VILLAGE LOOP, BEND, OR 97702",
  "hoa": "",
  "nadir_raw": "https://maps.googleapis.com/maps/api/staticmap?center=44.0067846,-121.3822392&zoom=19&size=640x640&maptype=satellite&key=AIzaSyBodCoZXT1xsVY_erI_cT1XGoWeBm6bx_I",
  "fr": {
    "nadir_url": "",
    "elements": [
      {
        "label": "Main Building",
        "lat": 44.0067722,
        "lng": -121.382222
      },
      {
        "label": "Landscaped Area",
        "lat": 44.0069089,
        "lng": -121.3821534
      },
      {
        "label": "Patio Area",
        "lat": 44.006797,
        "lng": -121.382222
      }
    ],
    "considerations": [
      {
        "label": "Dense Vegetation",
        "lat": 44.0069089,
        "lng": -121.3821534
      },
      {
        "label": "Limited Rear Access",
        "lat": 44.0066603,
        "lng": -121.3822392
      }
    ],
    "recommendations": "Enhancing responder effectiveness on the property could involve addressing current access limitations and visibility issues. Improving emergency responder access and movement might be achieved by managing the dense vegetation, particularly around the perimeter and entry points, to ensure clear passageways and visibility. The vegetation could be trimmed or modified to maintain open lines of sight and facilitate easier navigation for emergency personnel. Providing clear access to the rear of the property, such as an additional pathway or gate, may enhance responder reach and operational coverage. Adequate marking and identification of access points around the perimeter fencing could further support emergency personnel in quickly locating entry ways during critical situations. Ensuring that the landscaped area and patio do not obstruct maneuverability could also assist in effective staging and operational command during emergency responses."
  },
  "wildfire": {
    "nadir_url": "",
    "conditions": [
      {
        "label": "Vegetation Overhang",
        "lat": 44.0068778,
        "lng": -121.3821963
      },
      {
        "label": "Scattered Trees",
        "lat": 44.0067224,
        "lng": -121.3821534
      },
      {
        "label": "Vegetation Adjacent to Structure",
        "lat": 44.0067846,
        "lng": -121.3822821
      },
      {
        "label": "Limited Defensible Space",
        "lat": 44.006797,
        "lng": -121.382222
      }
    ],
    "recommendations": "Improving the defensible space around the property could be achieved by addressing the vegetation overhang and reducing the density of the tree canopy, particularly near the structure. Ensuring adequate separation between scattered trees and shrubs can help minimize fuel continuity and reduce opportunities for fire spread. Attention to vegetation directly adjacent to the structure is essential; maintaining a clear area close to the building may reduce potential exposure to heat and flames. Removing or thinning vegetation on the perimeter of the property could further support defensible space and long-term wildfire resilience. Enhancing access routes by managing vegetation could also support firefighting efforts and suppression operations. Regular maintenance of these elements will contribute to better property preparedness and increased safety during wildfire events."
  },
  "lat": 44.0067846,
  "lng": -121.3822392
}