{
  "name": "BACON RES (JACK & PENNY)",
  "address": "60998 LARSON ROAD, BEND, OR 97702",
  "hoa": "",
  "nadir_raw": "https://maps.googleapis.com/maps/api/staticmap?center=44.0474153,-121.3235198&zoom=19&size=640x640&maptype=satellite&key=AIzaSyBodCoZXT1xsVY_erI_cT1XGoWeBm6bx_I",
  "fr": {
    "nadir_url": "",
    "elements": [
      {
        "label": "Main Building",
        "lat": 44.0474153,
        "lng": -121.3235198
      },
      {
        "label": "Roof System",
        "lat": 44.0474401,
        "lng": -121.3234855
      },
      {
        "label": "Landscaped Area",
        "lat": 44.0473532,
        "lng": -121.3236056
      },
      {
        "label": "Pedestrian Walkways",
        "lat": 44.0472911,
        "lng": -121.3235541
      },
      {
        "label": "Vehicle Parking Area",
        "lat": 44.0471669,
        "lng": -121.3236915
      }
    ],
    "considerations": [
      {
        "label": "Single Access Point",
        "lat": 44.0469805,
        "lng": -121.3237773
      },
      {
        "label": "Multiple Structures",
        "lat": 44.0474153,
        "lng": -121.3235198
      }
    ],
    "recommendations": "Enhancing responder access and movement on the property may benefit from demarcating clear and designated access routes for emergency vehicles, particularly due to the presence of a single access point and multiple structures. Ensuring that the vehicle parking area does not obstruct pathways could facilitate quicker access and navigation for emergency responders. Maintaining clear and wide pedestrian walkways and ensuring that landscaping does not encroach on these areas may enhance visibility and maneuverability for personnel. Consideration for possible staging areas that do not obstruct the main building's access routes would support effective and efficient emergency operations. These measures could collectively enhance response readiness and operational capabilities in addressing potential emergencies on the property."
  },
  "wildfire": {
    "nadir_url": "",
    "conditions": [
      {
        "label": "Vegetation Adjacent to Structure",
        "lat": 44.0473905,
        "lng": -121.323434
      },
      {
        "label": "Scattered Trees",
        "lat": 44.0474774,
        "lng": -121.3236056
      },
      {
        "label": "Defensible Space",
        "lat": 44.0474153,
        "lng": -121.3235198
      }
    ],
    "recommendations": "Improving the defensible space around the property could involve managing the vegetation adjacent to the structure by increasing separation between combustible vegetation and building features. This may reduce direct flame contact potential and ember exposure to the structure. Enhancing the spacing between scattered trees may help to reduce fuel continuity, diminishing the likelihood of fire spread through the canopy. Maintaining the vegetated perimeter with routine thinning and pruning of shrubs and trees can provide an effective fuel break while preserving the natural aesthetic of the landscape. Encouraging regular maintenance of these areas and ensuring clear access pathways would support firefighter access and adaptability. Routine vegetation management practices will be essential in supporting long-term wildfire resilience and reducing the exposure of structures and the surrounding environment to potential wildfires."
  },
  "lat": 44.0474153,
  "lng": -121.3235198
}