{
  "name": "Highlands 39",
  "address": "19045 Macalpine Loop, Bend, OR 97702",
  "hoa": "highlands",
  "nadir_raw": "https://maps.googleapis.com/maps/api/staticmap?center=44.0484884,-121.3700825&zoom=19&size=640x640&maptype=satellite&key=AIzaSyBodCoZXT1xsVY_erI_cT1XGoWeBm6bx_I",
  "fr": {
    "nadir_url": "https://maps.googleapis.com/maps/api/staticmap?center=44.0484884,-121.3700825&zoom=19&size=640x640&maptype=satellite&markers=color:green|label:1|44.0485505,-121.3700825&markers=color:green|label:2|44.0483642,-121.3696533&markers=color:green|label:3|44.0485505,-121.3700825&markers=color:green|label:4|44.0483393,-121.3698250&markers=color:green|label:5|44.0481779,-121.3700825&markers=color:green|label:6|44.0481779,-121.3701683&markers=color:red|label:A|44.0482400,-121.3696533&markers=color:red|label:B|44.0487989,-121.3700825&markers=color:red|label:C|44.0484263,-121.3698250&key=AIzaSyBodCoZXT1xsVY_erI_cT1XGoWeBm6bx_I",
    "elements": [
      {
        "label": "Main Building",
        "lat": 44.0484884,
        "lng": -121.3700825
      },
      {
        "label": "Detached Structure",
        "lat": 44.0484263,
        "lng": -121.3696533
      },
      {
        "label": "Front Driveway",
        "lat": 44.0486747,
        "lng": -121.3694817
      },
      {
        "label": "Vehicle Parking Area",
        "lat": 44.0485505,
        "lng": -121.3697392
      },
      {
        "label": "Landscaped Area",
        "lat": 44.0481158,
        "lng": -121.3701683
      },
      {
        "label": "Open Green Space",
        "lat": 44.0479915,
        "lng": -121.3701683
      }
    ],
    "considerations": [
      {
        "label": "Limited Rear Access",
        "lat": 44.0483642,
        "lng": -121.3700825
      },
      {
        "label": "Multiple Structures",
        "lat": 44.0484884,
        "lng": -121.3699108
      }
    ],
    "recommendations": "To enhance emergency response effectiveness on the property, consider ensuring the single access point is clearly marked for rapid identification by responders and that it remains unobstructed at all times. Enhancing visibility of the guidance signage could support navigation and positioning of emergency vehicles. The presence of multiple structures suggests that labeled pathways and clear directional signs could facilitate efficient movement between buildings for responders. To address limited rear access, establishing an additional access route, even temporary, may assist in achieving a quicker approach to all areas of the premises. Consider maintaining clear lines of sight between the structures and open areas, which could aid in coordinating response efforts. In large properties such as this, delineated zones for vehicle parking might better accommodate staging of responder vehicles without impeding main access routes."
  },
  "wildfire": {
    "nadir_url": "https://maps.googleapis.com/maps/api/staticmap?center=44.0484884,-121.3700825&zoom=19&size=640x640&maptype=satellite&markers=color:orange|label:1|44.0487989,-121.3696533&markers=color:orange|label:2|44.0484884,-121.3702542&markers=color:orange|label:3|44.0481779,-121.3697392&markers=color:orange|label:4|44.0482400,-121.3700825&markers=color:orange|label:5|44.0481779,-121.3702542&markers=color:orange|label:6|44.0487368,-121.3696533&markers=color:orange|label:7|44.0486126,-121.3699108&key=AIzaSyBodCoZXT1xsVY_erI_cT1XGoWeBm6bx_I",
    "conditions": [
      {
        "label": "Scattered Shrubs",
        "lat": 44.048861,
        "lng": -121.3696533
      },
      {
        "label": "Scattered Shrubs",
        "lat": 44.0483642,
        "lng": -121.3695675
      },
      {
        "label": "Open Terrain",
        "lat": 44.0487989,
        "lng": -121.3705117
      },
      {
        "label": "Open Terrain",
        "lat": 44.0481779,
        "lng": -121.3705117
      },
      {
        "label": "Vegetation Adjacent to Structure",
        "lat": 44.0485505,
        "lng": -121.3699967
      },
      {
        "label": "Open Green Space",
        "lat": 44.0480537,
        "lng": -121.3700825
      },
      {
        "label": "Defensible Space",
        "lat": 44.0484884,
        "lng": -121.3700825
      },
      {
        "label": "Vegetated Perimeter",
        "lat": 44.0484884,
        "lng": -121.3706833
      },
      {
        "label": "Tall Grass Area",
        "lat": 44.0484884,
        "lng": -121.3693959
      },
      {
        "label": "Vegetation Adjacent to Fence",
        "lat": 44.0486126,
        "lng": -121.3702542
      }
    ],
    "recommendations": "Improving defensible space can be achieved by managing vegetation concentrations adjacent to structures and fences. Reducing or maintaining scattered shrubs and tall grasses within these areas may decrease fuel continuity and potential fire spread near the property improvements. Maintaining the open terrain and green spaces as buffers will support the separation of combustible materials from key structures. Attention to the vegetated perimeter by thinning or selectively trimming can further reduce potential ignition sources and support overall property resilience. Regular maintenance and management of these zones, alongside monitoring vegetation height and density, could enhance long-term preparedness and resilience against wildfire exposure."
  },
  "lat": 44.0484884,
  "lng": -121.3700825
}