{
  "name": "Highlands 32",
  "address": "61850 Dunbar Ct, Bend, OR 97702",
  "hoa": "highlands",
  "nadir_raw": "https://maps.googleapis.com/maps/api/staticmap?center=44.0476255,-121.3728349&zoom=20&size=640x640&maptype=satellite&key=AIzaSyBodCoZXT1xsVY_erI_cT1XGoWeBm6bx_I",
  "fr": {
    "nadir_url": "https://maps.googleapis.com/maps/api/staticmap?center=44.0476255,-121.3728349&zoom=20&size=640x640&maptype=satellite&markers=color:green|label:1|44.0476255,-121.3728349&markers=color:green|label:2|44.0475634,-121.3730495&markers=color:green|label:3|44.0475944,-121.3730066&markers=color:green|label:4|44.0475013,-121.3728778&markers=color:green|label:5|44.0474702,-121.3729636&markers=color:green|label:6|44.0474702,-121.3727920&markers=color:red|label:A|44.0475323,-121.3730495&markers=color:red|label:B|44.0476255,-121.3727491&key=AIzaSyBodCoZXT1xsVY_erI_cT1XGoWeBm6bx_I",
    "elements": [
      {
        "label": "Main Building",
        "lat": 44.0476255,
        "lng": -121.3727662
      },
      {
        "label": "Front Driveway",
        "lat": 44.0472529,
        "lng": -121.3731096
      },
      {
        "label": "Vehicle Parking Area",
        "lat": 44.0473771,
        "lng": -121.3729379
      },
      {
        "label": "Landscaped Area",
        "lat": 44.0475013,
        "lng": -121.3726632
      },
      {
        "label": "Open Green Space",
        "lat": 44.047079,
        "lng": -121.3722856
      }
    ],
    "considerations": [
      {
        "label": "Single Access Point",
        "lat": 44.0470044,
        "lng": -121.3733499
      },
      {
        "label": "Open Terrain",
        "lat": 44.0468802,
        "lng": -121.3728349
      }
    ],
    "recommendations": "Enhancing emergency response effectiveness for this property could involve optimizing the single access point to ensure it is clearly marked and easily navigable, thus supporting prompt responder entry. Expanding and maintaining the open terrain around the main building and vehicle parking area would facilitate unrestricted movement, allowing emergency vehicles and personnel to maneuver efficiently. Keeping the landscaped areas neat and the open green space well-defined may improve visibility for responders, ensuring that they can quickly assess the situation and identify critical zones. Additionally, ensuring clear demarcation of emergency response staging areas within the open terrain could further support strategic deployment and coordination during an emergency situation."
  },
  "wildfire": {
    "nadir_url": "https://maps.googleapis.com/maps/api/staticmap?center=44.0476255,-121.3728349&zoom=20&size=640x640&maptype=satellite&markers=color:orange|label:1|44.0477808,-121.3728349&markers=color:orange|label:2|44.0477497,-121.3727491&markers=color:orange|label:3|44.0475634,-121.3726632&markers=color:orange|label:4|44.0475944,-121.3727920&markers=color:orange|label:5|44.0474702,-121.3729207&markers=color:orange|label:6|44.0476566,-121.3730495&key=AIzaSyBodCoZXT1xsVY_erI_cT1XGoWeBm6bx_I",
    "conditions": [
      {
        "label": "Scattered Shrubs",
        "lat": 44.0471286,
        "lng": -121.3724916
      },
      {
        "label": "Vegetation Adjacent to Structure",
        "lat": 44.0477497,
        "lng": -121.3726632
      },
      {
        "label": "Limited Defensible Space",
        "lat": 44.0476255,
        "lng": -121.3728349
      },
      {
        "label": "Vegetated Access Route",
        "lat": 44.0473771,
        "lng": -121.3728349
      },
      {
        "label": "Brush Concentration",
        "lat": 44.0473771,
        "lng": -121.3721483
      },
      {
        "label": "Open Fuel Break",
        "lat": 44.0476255,
        "lng": -121.3731782
      }
    ],
    "recommendations": "Enhancing defensible space around your property can be achieved by increasing separation between vegetation and the structure, particularly where vegetation is adjacent. This could involve trimming or selectively removing some of the scattered shrubs near buildings to diminish fuel continuity. Strategically managing the brush concentration, particularly around improvements and along the vegetated perimeter, may help in creating a more effective defensible space. Improving and maintaining the open fuel break could serve as an additional buffer to reduce fire spread. Ensuring that the access route is clear of excessive vegetation will support firefighter access and enhance emergency response capabilities. Vigilant, ongoing vegetation management along the access route and within proximity to structures could support efforts to reduce exposure to wildfire and improve overall property preparedness and resilience."
  },
  "lat": 44.0476255,
  "lng": -121.3728349
}