{
  "name": "Highlands 32",
  "address": "61850 Dunbar Ct, Bend, OR 97702",
  "hoa": "highlands",
  "nadir_raw": "https://maps.googleapis.com/maps/api/staticmap?center=44.0476255,-121.3728349&zoom=20&size=640x640&maptype=satellite&key=AIzaSyBodCoZXT1xsVY_erI_cT1XGoWeBm6bx_I",
  "fr": {
    "nadir_url": "https://maps.googleapis.com/maps/api/staticmap?center=44.0476255,-121.3728349&zoom=20&size=640x640&maptype=satellite&markers=color:green|label:1|44.0476255,-121.3728349&markers=color:green|label:2|44.0475634,-121.3730495&markers=color:green|label:3|44.0475944,-121.3730066&markers=color:green|label:4|44.0475013,-121.3728778&markers=color:green|label:5|44.0474702,-121.3729636&markers=color:green|label:6|44.0474702,-121.3727920&markers=color:red|label:A|44.0475323,-121.3730495&markers=color:red|label:B|44.0476255,-121.3727491&key=AIzaSyBodCoZXT1xsVY_erI_cT1XGoWeBm6bx_I",
    "elements": [
      {
        "label": "Main Building",
        "lat": 44.0476255,
        "lng": -121.3727491
      },
      {
        "label": "Roof System",
        "lat": 44.0476255,
        "lng": -121.3727491
      },
      {
        "label": "Front Driveway",
        "lat": 44.0475013,
        "lng": -121.3730924
      },
      {
        "label": "Vehicle Parking Area",
        "lat": 44.0475634,
        "lng": -121.3730066
      },
      {
        "label": "Landscaped Area",
        "lat": 44.0474392,
        "lng": -121.3728349
      },
      {
        "label": "Open Green Space",
        "lat": 44.0473771,
        "lng": -121.3728349
      }
    ],
    "considerations": [
      {
        "label": "Single Access Point",
        "lat": 44.0472529,
        "lng": -121.3731782
      },
      {
        "label": "Limited Rear Access",
        "lat": 44.0477497,
        "lng": -121.3726632
      },
      {
        "label": "Open Terrain",
        "lat": 44.0475013,
        "lng": -121.3724916
      }
    ],
    "recommendations": "Enhancing emergency response on this property may involve several strategic improvements. Establishing additional access routes or alternative entry points could improve responder access and movement, particularly where there is a single access point and limited options for rear access. The open terrain may facilitate broader visibility and navigation for responding personnel, provided there is maintenance of clear lines of sight from the property boundaries to critical areas such as the main building and parking zones. Designating specific areas within the open green space may assist with more effective responder staging, which in turn can streamline operational activities. Additionally, care should be taken to ensure that the front driveway and vehicle parking area remain clear for quick and unimpeded access by emergency vehicles. These steps could collectively enhance overall response efficiency and effectiveness."
  },
  "wildfire": {
    "nadir_url": "https://maps.googleapis.com/maps/api/staticmap?center=44.0476255,-121.3728349&zoom=20&size=640x640&maptype=satellite&markers=color:orange|label:1|44.0477808,-121.3728349&markers=color:orange|label:2|44.0477497,-121.3727491&markers=color:orange|label:3|44.0475634,-121.3726632&markers=color:orange|label:4|44.0475944,-121.3727920&markers=color:orange|label:5|44.0474702,-121.3729207&markers=color:orange|label:6|44.0476566,-121.3730495&key=AIzaSyBodCoZXT1xsVY_erI_cT1XGoWeBm6bx_I",
    "conditions": [
      {
        "label": "Scattered Shrubs",
        "lat": 44.0475013,
        "lng": -121.3726632
      },
      {
        "label": "Vegetated Perimeter",
        "lat": 44.0478739,
        "lng": -121.3722341
      },
      {
        "label": "Defensible Space",
        "lat": 44.0475634,
        "lng": -121.3730066
      },
      {
        "label": "Structure Surrounded by Vegetation",
        "lat": 44.0476255,
        "lng": -121.3728349
      },
      {
        "label": "Open Terrain",
        "lat": 44.047315,
        "lng": -121.3732641
      },
      {
        "label": "Long Driveway",
        "lat": 44.0473771,
        "lng": -121.3734357
      },
      {
        "label": "Vegetation Adjacent to Structure",
        "lat": 44.0476503,
        "lng": -121.3727491
      },
      {
        "label": "Open Green Space",
        "lat": 44.0474392,
        "lng": -121.3729207
      }
    ],
    "recommendations": "Enhancing defensible space around the property could be achieved by managing scattered shrubs and reducing vegetation concentrations along the perimeter and adjacent to structures. Ensuring there is sufficient separation between vegetation and the building may help minimize exposure. Maintaining and potentially widening open green spaces around the structure could further reduce fuel continuity. Regular removal or trimming of vegetation along the long driveway would support safer access and egress for firefighters and residents. Preserving open terrain between vegetated areas and the residence could act as natural breaks to slow potential fire spread, enhancing the property's wildfire resilience and preparedness. Integrating these practices into a long-term vegetation management strategy may provide continuous support to wildfire mitigation efforts."
  },
  "lat": 44.0476255,
  "lng": -121.3728349
}