{
  "name": "BUCHANAN RES (PATRICK & TANYA)",
  "address": "18985 RIDGELINE DR, BEND, OR 97703",
  "hoa": "",
  "nadir_raw": "https://maps.googleapis.com/maps/api/staticmap?center=44.0611638,-121.3746345&zoom=19&size=640x640&maptype=satellite&key=AIzaSyBodCoZXT1xsVY_erI_cT1XGoWeBm6bx_I",
  "fr": {
    "nadir_url": "",
    "elements": [
      {
        "label": "Main Building",
        "lat": 44.0611638,
        "lng": -121.3746345
      },
      {
        "label": "Roof System",
        "lat": 44.0611886,
        "lng": -121.3746002
      },
      {
        "label": "Front Driveway",
        "lat": 44.0609775,
        "lng": -121.374892
      },
      {
        "label": "Landscaped Area",
        "lat": 44.0610396,
        "lng": -121.374686
      },
      {
        "label": "Sidewalk Network",
        "lat": 44.0611017,
        "lng": -121.3746688
      },
      {
        "label": "Detached Structure",
        "lat": 44.0608533,
        "lng": -121.3748062
      }
    ],
    "considerations": [
      {
        "label": "Limited Rear Access",
        "lat": 44.0606671,
        "lng": -121.3744628
      },
      {
        "label": "Dense Vegetation",
        "lat": 44.0608533,
        "lng": -121.3742912
      }
    ],
    "recommendations": "Enhancing emergency response effectiveness on this property may involve focusing on several key areas. Improving rear access by considering modifications to existing pathways or adding new ones could facilitate quicker emergency responder movement around the structures. Pruning or selectively removing sections of dense vegetation in strategic locations may enhance visibility and maneuverability for responders, aiding in swift navigation and operational staging. Ensuring the front driveway and sidewalk network are unobstructed and clearly marked can support efficient access and egress, allowing for smoother operations. Additionally, maintaining clear delineations around both the main building and the detached structure may support effective identification and approach during emergency scenarios."
  },
  "wildfire": {
    "nadir_url": "",
    "conditions": [
      {
        "label": "Limited Defensible Space",
        "lat": 44.0611638,
        "lng": -121.3746345
      },
      {
        "label": "Vegetation Adjacent to Structure",
        "lat": 44.0611017,
        "lng": -121.3747203
      },
      {
        "label": "Multiple Access Routes",
        "lat": 44.061288,
        "lng": -121.3742912
      },
      {
        "label": "Open Green Space",
        "lat": 44.0612259,
        "lng": -121.3748062
      }
    ],
    "recommendations": "Improving the defensible space around the structure by increasing the separation between adjacent vegetation and the building could be beneficial. Managing the scattered shrubs and reducing their concentration, especially near the structure, will help reduce fuel continuity and exposure. Utilizing the existing open terrain and preserving the open green space can aid in creating effective fuel breaks and enhancing wildfire resilience. The presence of multiple access routes is advantageous for firefighter entry and suppression efforts, but their effectiveness could be bolstered by ensuring they remain clear of dense vegetation. Continued maintenance of these access routes and the immediate structure perimeter can support both immediate wildfire preparedness and longer-term vegetation management practices."
  },
  "lat": 44.0611638,
  "lng": -121.3746345
}