{
  "name": "Highlands 26",
  "address": "18870 Macalpine Loop, Bend, OR 97702",
  "hoa": "highlands",
  "nadir_raw": "https://maps.googleapis.com/maps/api/staticmap?center=44.047551,-121.3823526&zoom=18&size=640x640&maptype=satellite&key=AIzaSyBodCoZXT1xsVY_erI_cT1XGoWeBm6bx_I",
  "fr": {
    "nadir_url": "https://maps.googleapis.com/maps/api/staticmap?center=44.047551,-121.3823526&zoom=18&size=640x640&maptype=satellite&markers=color:green|label:1|44.0475510,-121.3823526&markers=color:green|label:2|44.0473026,-121.3822839&markers=color:green|label:3|44.0474268,-121.3821809&markers=color:red|label:A|44.0477994,-121.3825243&markers=color:red|label:B|44.0469299,-121.3814943&markers=color:red|label:C|44.0475510,-121.3820093&key=AIzaSyBodCoZXT1xsVY_erI_cT1XGoWeBm6bx_I",
    "elements": [
      {
        "label": "Main Building",
        "lat": 44.047551,
        "lng": -121.3823526
      },
      {
        "label": "Pool Area",
        "lat": 44.0474268,
        "lng": -121.3820779
      },
      {
        "label": "Landscaped Area",
        "lat": 44.0476007,
        "lng": -121.3824213
      },
      {
        "label": "Patio Area",
        "lat": 44.047551,
        "lng": -121.3822153
      },
      {
        "label": "Perimeter Fencing",
        "lat": 44.047551,
        "lng": -121.3826959
      }
    ],
    "considerations": [
      {
        "label": "Limited Rear Access",
        "lat": 44.047551,
        "lng": -121.3820093
      },
      {
        "label": "Dense Vegetation",
        "lat": 44.0477994,
        "lng": -121.3823526
      }
    ],
    "recommendations": "Improving emergency responder access to the property could be achieved by addressing the limited rear access and dense vegetation identified in the aerial analysis. Creating an unobstructed pathway to the rear of the property would facilitate better movement for responders during emergencies. Managing and thinning the dense vegetation, especially near crucial access points and along travel paths, may significantly enhance visibility and movement. Clear labeling of points of entry, particularly around the perimeter fencing, would support quick navigation and staging for emergency personnel. Simplifying routes from the main building, pool, patio, and landscaped areas towards emergency egress points may further assist in orchestrating efficient emergency response operations throughout the property."
  },
  "wildfire": {
    "nadir_url": "https://maps.googleapis.com/maps/api/staticmap?center=44.047551,-121.3823526&zoom=18&size=640x640&maptype=satellite&markers=color:orange|label:1|44.0474516,-121.3821809&markers=color:orange|label:2|44.0471784,-121.3820093&markers=color:orange|label:3|44.0475510,-121.3823526&markers=color:orange|label:4|44.0475013,-121.3824213&markers=color:orange|label:5|44.0473026,-121.3826959&markers=color:orange|label:6|44.0476752,-121.3820779&markers=color:orange|label:7|44.0470541,-121.3822839&key=AIzaSyBodCoZXT1xsVY_erI_cT1XGoWeBm6bx_I",
    "conditions": [
      {
        "label": "Scattered Trees",
        "lat": 44.0477994,
        "lng": -121.3820093
      },
      {
        "label": "Defensible Space",
        "lat": 44.047551,
        "lng": -121.3823526
      },
      {
        "label": "Vegetation Adjacent to Structure",
        "lat": 44.0476255,
        "lng": -121.3821809
      },
      {
        "label": "Tree Cluster",
        "lat": 44.0473026,
        "lng": -121.3826959
      },
      {
        "label": "Vegetated Perimeter",
        "lat": 44.0473026,
        "lng": -121.3814943
      },
      {
        "label": "Vegetation Adjacent to Access Route",
        "lat": 44.0468057,
        "lng": -121.3818376
      },
      {
        "label": "Scattered Shrubs",
        "lat": 44.0470541,
        "lng": -121.3830392
      },
      {
        "label": "Surrounding Open Space",
        "lat": 44.0482963,
        "lng": -121.3826959
      }
    ],
    "recommendations": "Enhancing defensible space around the structure by managing vegetation adjacent to it can help reduce fuel continuity and potential exposure during a wildfire. Increasing separation between the scattered trees and ensuring that shrubs near the structure are actively managed could further support structure protection. Addressing the tree cluster by reducing its density may help in decreasing potential fire intensity and spread in this area. Maintaining the surrounding open space and open terrain can contribute to effective fuel breaks, which are valuable in limiting wildfire movement towards the structure. Ensuring that vegetation along the access route is regularly managed can preserve clear pathways for firefighter access and support suppression activities. Active engagement in vegetation management practices on the vegetated perimeter might enhance wildfire resilience and overall property preparedness."
  },
  "lat": 44.047551,
  "lng": -121.3823526
}