{
  "name": "DOWNER RES (DOUG)",
  "address": "56175 SCHOOL HOUSE ROAD, BEND, OR 97707",
  "hoa": "",
  "nadir_raw": "https://maps.googleapis.com/maps/api/staticmap?center=43.840793,-121.4450454&zoom=19&size=640x640&maptype=satellite&key=AIzaSyBodCoZXT1xsVY_erI_cT1XGoWeBm6bx_I",
  "fr": {
    "nadir_url": "",
    "elements": [
      {
        "label": "Main Building",
        "lat": 43.840793,
        "lng": -121.4450454
      },
      {
        "label": "Landscaped Area",
        "lat": 43.8409176,
        "lng": -121.4448737
      },
      {
        "label": "Detached Structure",
        "lat": 43.8407431,
        "lng": -121.4451141
      },
      {
        "label": "Open Green Space",
        "lat": 43.8410423,
        "lng": -121.4449767
      },
      {
        "label": "Driveway",
        "lat": 43.8405437,
        "lng": -121.4447707
      }
    ],
    "considerations": [
      {
        "label": "Dense Vegetation",
        "lat": 43.8409176,
        "lng": -121.4447021
      }
    ],
    "recommendations": "Enhancing emergency response effectiveness on the property could be facilitated by addressing the dense vegetation that may obstruct access and visibility for emergency responders. Regular trimming and maintenance around the driveway and other key access routes could ensure clear passage and improve sight lines. Establishing additional access points where feasible may enhance accessibility and provide multiple routes for responder movement. Ensuring the landscaped area remains free from obstructions could assist in navigation and staging, allowing responders to reach the main building and detached structures more efficiently. Additionally, maintaining open green spaces with minimal obstruction can support effective staging areas for emergency operations. These actions could collectively improve responder access, mobility, and operational coordination during emergency situations."
  },
  "wildfire": {
    "nadir_url": "",
    "conditions": [
      {
        "label": "Scattered Trees",
        "lat": 43.840793,
        "lng": -121.4447021
      },
      {
        "label": "Vegetation Adjacent to Structure",
        "lat": 43.8406684,
        "lng": -121.4450454
      },
      {
        "label": "Dense Tree Canopy",
        "lat": 43.840793,
        "lng": -121.4448737
      }
    ],
    "recommendations": "Enhancing defensible space around the property could involve managing the tree cluster and dense tree canopy to reduce fuel continuity and increase vertical and horizontal separations between treetops. Vegetation adjacent to the structure and fence should be strategically managed to minimize potential fire exposure and support structural protection. The open fuel break should be maintained to provide an effective barrier against fire spread through the property. Regularly clearing vegetated drainage areas can reduce the accumulation of combustible material that might otherwise channel fire towards the property. The open terrain and surrounding open space are valuable in promoting defensible space and could be preserved to help interrupt fire continuity. Continuously monitoring and managing scattered trees throughout the property would also support suppression operations and overall wildfire resilience."
  },
  "lat": 43.840793,
  "lng": -121.4450454
}