{
  "name": "BRECA BEND",
  "address": "1929 NE NEFF ROAD, BEND, OR 97701",
  "hoa": "",
  "nadir_raw": "https://maps.googleapis.com/maps/api/staticmap?center=44.0653869,-121.2756141&zoom=19&size=640x640&maptype=satellite&key=AIzaSyBodCoZXT1xsVY_erI_cT1XGoWeBm6bx_I",
  "fr": {
    "nadir_url": "",
    "elements": [
      {
        "label": "Main Building",
        "lat": 44.0653869,
        "lng": -121.2756141
      },
      {
        "label": "Vehicle Parking Area",
        "lat": 44.0655732,
        "lng": -121.2757858
      },
      {
        "label": "Pedestrian Walkways",
        "lat": 44.0653248,
        "lng": -121.275657
      },
      {
        "label": "Perimeter Fencing",
        "lat": 44.0655111,
        "lng": -121.2754424
      }
    ],
    "considerations": [
      {
        "label": "Single Access Point",
        "lat": 44.0656042,
        "lng": -121.2758287
      }
    ],
    "recommendations": "Enhancing emergency response effectiveness for this property could involve ensuring that the single access point remains clearly marked and unobstructed, which may support timely responder entry and exit. Creating dedicated response lanes within the vehicle parking area might facilitate clear passage for emergency vehicles. Regular pruning and maintenance of dense vegetation around multiple structures can enhance visibility and movement for responders during operations. Clearly marked pedestrian walkways leading to and from the main building might aid in efficient navigation and potentially serve as effective routes for personnel deployment. Assessing and, if necessary, expanding the perimeter fencing entrance width can support unobstructed movement of larger emergency equipment. Overall, strategically managing these elements may assist in more effective and fluid emergency response activities."
  },
  "wildfire": {
    "nadir_url": "",
    "conditions": [
      {
        "label": "Vegetation Adjacent to Structure",
        "lat": 44.0653248,
        "lng": -121.2755283
      },
      {
        "label": "Vegetation Adjacent to Access Route",
        "lat": 44.065449,
        "lng": -121.2758716
      }
    ],
    "recommendations": "Enhancing defensible space by maintaining separation between the tree cluster and the structure could help in reducing fuel continuity and managing vegetation near improvements. Efforts to reduce vegetation concentrations directly adjacent to the structure are crucial to minimize potential exposure. Managing scattered trees by ensuring adequate spacing can further break up fuel continuity and allow for better suppression opportunities. Given the open terrain, preserving these areas free of dense combustible vegetation will support defensible space and assist in slowing fire spread towards the property. Additionally, managing vegetation adjacent to the access route can improve firefighter accessibility and provide safer egress during wildfire events. A well-thought-out vegetation management strategy that focuses on reducing fuel continuity and maintaining open spaces around critical access and structural areas will contribute to long-term wildfire resilience and preparedness."
  },
  "lat": 44.0653869,
  "lng": -121.2756141
}