{
  "name": "Highlands 41",
  "address": "19100 Macalpine Loop, Bend, OR 97702",
  "hoa": "highlands",
  "nadir_raw": "https://maps.googleapis.com/maps/api/staticmap?center=44.0506705,-121.3694519&zoom=18&size=640x640&maptype=satellite&key=AIzaSyBodCoZXT1xsVY_erI_cT1XGoWeBm6bx_I",
  "fr": {
    "nadir_url": "https://maps.googleapis.com/maps/api/staticmap?center=44.0506705,-121.3694519&zoom=18&size=640x640&maptype=satellite&markers=color:green|label:1|44.0506705,-121.3694519&markers=color:green|label:2|44.0505463,-121.3697952&markers=color:green|label:3|44.0504221,-121.3696236&markers=color:green|label:4|44.0501737,-121.3689369&markers=color:green|label:5|44.0500495,-121.3697952&key=AIzaSyBodCoZXT1xsVY_erI_cT1XGoWeBm6bx_I",
    "elements": [
      {
        "label": "Main Building",
        "lat": 44.0506705,
        "lng": -121.3694519
      },
      {
        "label": "Pool Area",
        "lat": 44.0505463,
        "lng": -121.3696236
      },
      {
        "label": "Front Driveway",
        "lat": 44.0500495,
        "lng": -121.3691086
      },
      {
        "label": "Landscaped Area",
        "lat": 44.0504221,
        "lng": -121.3695549
      },
      {
        "label": "Detached Structure",
        "lat": 44.0502979,
        "lng": -121.3693489
      }
    ],
    "considerations": [
      {
        "label": "Limited Rear Access",
        "lat": 44.0511673,
        "lng": -121.3694519
      }
    ],
    "recommendations": "Improving the property's emergency response access may benefit from enhancing visibility and maneuverability. Ensuring the single access point is clearly marked and easily navigable could facilitate quicker access for responders. Consider trimming back vegetation around this entrance to prevent any visual obstructions. Enhancing ease of access to the rear areas may support broader operational capabilities. Establishing secondary access pathways could assist with navigation during emergencies, allowing responders more direct routes to critical property areas. Moreover, maintaining unobstructed paths in the front driveway and around structures would support efficient staging and movement of emergency vehicles. Ensuring clear delineation of pathway boundaries through the landscaped areas could further enhance responsiveness by reducing potential navigation challenges."
  },
  "wildfire": {
    "nadir_url": "https://maps.googleapis.com/maps/api/staticmap?center=44.0506705,-121.3694519&zoom=18&size=640x640&maptype=satellite&markers=color:orange|label:1|44.0507202,-121.3693832&markers=color:orange|label:2|44.0509189,-121.3687653&markers=color:orange|label:3|44.0504221,-121.3701385&markers=color:orange|label:4|44.0500495,-121.3696236&markers=color:orange|label:5|44.0506705,-121.3691086&markers=color:orange|label:6|44.0506705,-121.3694519&key=AIzaSyBodCoZXT1xsVY_erI_cT1XGoWeBm6bx_I",
    "conditions": [
      {
        "label": "Vegetated Perimeter",
        "lat": 44.0512667,
        "lng": -121.3704132
      },
      {
        "label": "Scattered Trees",
        "lat": 44.0509189,
        "lng": -121.3697952
      },
      {
        "label": "Defensible Space",
        "lat": 44.0506705,
        "lng": -121.3694519
      },
      {
        "label": "Vegetation Adjacent to Structure",
        "lat": 44.0507947,
        "lng": -121.3691772
      },
      {
        "label": "Vegetation Adjacent to Access Route",
        "lat": 44.0504718,
        "lng": -121.3688683
      },
      {
        "label": "Open Green Space",
        "lat": 44.0504221,
        "lng": -121.3696922
      },
      {
        "label": "Fuel Mosaic",
        "lat": 44.0514158,
        "lng": -121.3701385
      }
    ],
    "recommendations": "Managing vegetation near the structure and access route while ensuring separation could enhance defensible space and firefighter access. Adjusting the distribution of scattered trees to maintain open areas around the property could reduce fuel continuity and exposure to structures. Regularly maintaining the vegetated perimeter and managing vegetation adjacent to the access route would support suppression efforts and improve ingress and egress for emergency responders. Enhancing the existing open green space can contribute to natural fuel breaks, helping to limit potential fire spread. Consistent oversight of the fuel mosaic will aid in long-term resilience by sustaining a diverse landscape with varied fuel types, enabling gradual reduction of combustible biomass around the residence."
  },
  "lat": 44.0506705,
  "lng": -121.3694519
}