{
  "name": "328-1527",
  "address": "691 Murphy Rd, Medford, OR 97504",
  "hoa": "asante",
  "nadir_raw": "https://maps.googleapis.com/maps/api/staticmap?center=42.3178123,-122.8279668&zoom=19&size=640x640&maptype=satellite&key=AIzaSyBodCoZXT1xsVY_erI_cT1XGoWeBm6bx_I",
  "fr": {
    "nadir_url": "https://maps.googleapis.com/maps/api/staticmap?center=42.3178123,-122.8279668&zoom=19&size=640x640&maptype=satellite&markers=color:green|label:1|42.3178123,-122.8279668&markers=color:green|label:2|42.3176206,-122.8276235&markers=color:green|label:3|42.3178762,-122.8279668&markers=color:green|label:4|42.3174928,-122.8283960&markers=color:green|label:5|42.3174928,-122.8283101&markers=color:red|label:A|42.3174928,-122.8278810&markers=color:red|label:B|42.3176206,-122.8275376&markers=color:red|label:C|42.3181318,-122.8279668&key=AIzaSyBodCoZXT1xsVY_erI_cT1XGoWeBm6bx_I",
    "elements": [
      {
        "label": "Main Building",
        "lat": 42.3177484,
        "lng": -122.8279668
      },
      {
        "label": "Vehicle Parking Area",
        "lat": 42.317365,
        "lng": -122.8275376
      },
      {
        "label": "Sidewalk Network",
        "lat": 42.3176845,
        "lng": -122.8282243
      },
      {
        "label": "Landscaped Area",
        "lat": 42.3173012,
        "lng": -122.8285676
      },
      {
        "label": "Roof System",
        "lat": 42.3178123,
        "lng": -122.8279668
      }
    ],
    "considerations": [
      {
        "label": "Single Access Point",
        "lat": 42.3172373,
        "lng": -122.8281385
      },
      {
        "label": "Multiple Structures",
        "lat": 42.3178123,
        "lng": -122.8279668
      },
      {
        "label": "Limited Rear Access",
        "lat": 42.3174289,
        "lng": -122.8274518
      }
    ],
    "recommendations": "To enhance emergency response effectiveness, consider implementing strategies that improve access and movement throughout the property. Creating an additional access point could facilitate faster responder entry and exit, especially given the presence of multiple structures. Ensuring that the vehicle parking area and sidewalk network remain free of obstructions may support smoother navigation and efficient responder movement across the site. Enhancing visibility and access to the rear of structures could be beneficial, potentially through the use of clear signage and unobstructed pathways. Additionally, maintaining the landscaped area in such a way as to avoid visual or physical impediments around key access routes and the main building could assist in response operations. These adjustments may collectively improve staging areas and navigation, ultimately aiding in effective emergency responses."
  },
  "wildfire": {
    "nadir_url": "https://maps.googleapis.com/maps/api/staticmap?center=42.3178123,-122.8279668&zoom=19&size=640x640&maptype=satellite&markers=color:orange|label:1|42.3178123,-122.8279668&key=AIzaSyBodCoZXT1xsVY_erI_cT1XGoWeBm6bx_I",
    "conditions": [
      {
        "label": "Vegetated Perimeter",
        "lat": 42.3183234,
        "lng": -122.8277093
      },
      {
        "label": "Open Terrain",
        "lat": 42.3178123,
        "lng": -122.8284818
      },
      {
        "label": "Scattered Trees",
        "lat": 42.3172373,
        "lng": -122.8282243
      },
      {
        "label": "Vegetation Adjacent to Structure",
        "lat": 42.3174289,
        "lng": -122.827881
      },
      {
        "label": "Parking Lot",
        "lat": 42.3175567,
        "lng": -122.8281385
      }
    ],
    "recommendations": "Enhancing defensible space around the property could be achieved by strategically increasing vegetation separation, particularly with the vegetated perimeter and vegetation adjacent to the structure. Managing these areas to reduce fuel continuity can help prevent fire from easily spreading to key assets. Open terrain, along with existing scattered trees, should be preserved as they may contribute to natural fuel breaks, provided they remain well-maintained and adequately spaced. The presence of a parking lot offers a non-combustible surface, which could be utilized as a staging area for firefighting efforts while also acting as a barrier to fire spread. Ongoing maintenance efforts to manage vegetation near the structure and along access routes will be important to support firefighter accessibility and operational effectiveness. These actions together could bolster the property's resilience against wildfire and contribute to overall preparedness and safety planning."
  },
  "lat": 42.3178123,
  "lng": -122.8279668
}