{
  "name": "CONNER RES (JOHN)",
  "address": "66280 REBECCA LANE, BEND, OR 97701",
  "hoa": "",
  "nadir_raw": "https://maps.googleapis.com/maps/api/staticmap?center=44.2066960999999,-121.4405375&zoom=19&size=640x640&maptype=satellite&key=AIzaSyBodCoZXT1xsVY_erI_cT1XGoWeBm6bx_I",
  "fr": {
    "nadir_url": "",
    "elements": [
      {
        "label": "Main Building",
        "lat": 44.2065474,
        "lng": -121.4404688
      },
      {
        "label": "Access Road",
        "lat": 44.20682,
        "lng": -121.4406062
      }
    ],
    "considerations": [
      {
        "label": "Single Access Point",
        "lat": 44.20682,
        "lng": -121.4406062
      }
    ],
    "recommendations": "Enhancing emergency response effectiveness at the property could involve ensuring the main access road remains clear and unobstructed at all times, as it serves as the single entry and exit point for emergency personnel. The open terrain surrounding the main building provides an opportunity to create designated staging areas that could facilitate coordinated responder deployment and equipment setup. Installing clear signage at the single access point and along the entrance route may enhance navigation for responding units, especially in conditions of limited visibility. These measures could assist responders in maintaining efficient movement and access while supporting coordinated emergency operations at the property."
  },
  "wildfire": {
    "nadir_url": "",
    "conditions": [
      {
        "label": "Scattered Shrubs",
        "lat": 44.2065722,
        "lng": -121.4408808
      },
      {
        "label": "Vegetated Perimeter",
        "lat": 44.2064483,
        "lng": -121.4395075
      },
      {
        "label": "Open Terrain",
        "lat": 44.2069439,
        "lng": -121.4405375
      },
      {
        "label": "Structure Surrounded by Vegetation",
        "lat": 44.2066961,
        "lng": -121.4403658
      },
      {
        "label": "Vegetation Adjacent to Structure",
        "lat": 44.2067457,
        "lng": -121.4406062
      },
      {
        "label": "Open Fuel Break",
        "lat": 44.2070677,
        "lng": -121.4410525
      },
      {
        "label": "Vegetated Access Route",
        "lat": 44.2066961,
        "lng": -121.4415675
      },
      {
        "label": "Limited Side Access",
        "lat": 44.2066465,
        "lng": -121.4404688
      }
    ],
    "recommendations": "Enhancing defensible space around the property could be achieved by managing the vegetation adjacent to the structure, focusing on increasing separation between combustible materials and building elements. Reducing the density of scattered shrubs and tall grass areas will help break the continuity of fuels, minimizing opportunities for fire spread toward the residence. Maintaining the open fuel break and preserving existing open terrain can also diminish potential fire pathways. This approach may improve overall property preparedness. Given the vegetated perimeter and vegetated access route, ensuring clear and well-maintained pathways for firefighter access could enhance suppression support. Addressing vegetation along these routes may bolster long-term wildfire resilience, while improving any limited side access areas around the property can support effective firefighting operations. Engaging in ongoing vegetation management around scattered trees and maintaining clear zones will contribute to a more resilient landscape."
  },
  "lat": 44.2066960999999,
  "lng": -121.4405375
}