{
  "name": "DENT RES (ROBERT & KATHY)",
  "address": "20615 WOODSIDE COURT, BEND, OR 97702",
  "hoa": "",
  "nadir_raw": "https://maps.googleapis.com/maps/api/staticmap?center=44.0069942,-121.2934616&zoom=19&size=640x640&maptype=satellite&key=AIzaSyBodCoZXT1xsVY_erI_cT1XGoWeBm6bx_I",
  "fr": {
    "nadir_url": "",
    "elements": [
      {
        "label": "Main Building",
        "lat": 44.0070564,
        "lng": -121.2934616
      },
      {
        "label": "Detached Structure",
        "lat": 44.006901,
        "lng": -121.2936161
      },
      {
        "label": "Vehicle Parking Area",
        "lat": 44.0068699,
        "lng": -121.2933758
      },
      {
        "label": "Outdoor Storage Area",
        "lat": 44.006932,
        "lng": -121.2935045
      }
    ],
    "considerations": [
      {
        "label": "Multiple Structures",
        "lat": 44.0069942,
        "lng": -121.2934616
      }
    ],
    "recommendations": "Improving clear entry points and ensuring visible signage for each structure could enhance emergency responder navigation and staging efforts across the property. Maintaining wide and unobstructed pathways between the main building, detached structure, and vehicle parking area would support efficient responder movement and access. Minimizing dense vegetation near pathways and access points may facilitate clearer routes for vehicle and personnel transit while aiding visibility to critical areas. Keeping outdoor storage areas organized and away from high-traffic zones could provide easier access and more effective operational space. Overall, a focus on distinct and maintained access corridors between the notable property elements may contribute to improved emergency response activities."
  },
  "wildfire": {
    "nadir_url": "",
    "conditions": [
      {
        "label": "Scattered Trees",
        "lat": 44.0070564,
        "lng": -121.2936333
      },
      {
        "label": "Vegetation Adjacent to Structure",
        "lat": 44.0069942,
        "lng": -121.2935045
      },
      {
        "label": "Limited Defensible Space",
        "lat": 44.0069942,
        "lng": -121.2934187
      },
      {
        "label": "Structure Cluster",
        "lat": 44.0069631,
        "lng": -121.2935903
      },
      {
        "label": "Vegetation Adjacent to Access Route",
        "lat": 44.0068388,
        "lng": -121.2933329
      },
      {
        "label": "Fuel Continuity",
        "lat": 44.006932,
        "lng": -121.2935474
      },
      {
        "label": "Open Terrain",
        "lat": 44.0071185,
        "lng": -121.2932899
      }
    ],
    "recommendations": "Improving defensible space and reducing fuel continuity on the property may benefit from targeted vegetation management. By increasing separation between scattered trees and clusters, it may be possible to disrupt potential fire pathways and reduce the chances of fire spreading through fuel continuity. Managing vegetation directly adjacent to the structure and along the perimeter could help minimize direct exposure to flames and reduce the opportunity for ember ignitions. Additionally, optimizing open terrain areas by preserving them as fuel breaks can further support this effort. To enhance access and provide effective firefighter operational space, maintaining open, accessible routes by managing vegetation beside access pathways may reinforce suppression capabilities. These steps can contribute to improved long-term wildfire resilience and property preparedness."
  },
  "lat": 44.0069942,
  "lng": -121.2934616
}