{
  "name": "Highlands 17",
  "address": "61645 Rowallan Ct, Bend, OR 97702",
  "hoa": "highlands",
  "nadir_raw": "https://maps.googleapis.com/maps/api/staticmap?center=44.0386741,-121.3827286&zoom=18&size=640x640&maptype=satellite&key=AIzaSyBodCoZXT1xsVY_erI_cT1XGoWeBm6bx_I",
  "fr": {
    "nadir_url": "https://maps.googleapis.com/maps/api/staticmap?center=44.0386741,-121.3827286&zoom=18&size=640x640&maptype=satellite&markers=color:green|label:1|44.0386493,-121.3828316&markers=color:green|label:2|44.0387238,-121.3829689&markers=color:green|label:3|44.0383759,-121.3825913&markers=color:green|label:4|44.0387983,-121.3830719&markers=color:red|label:A|44.0381772,-121.3825226&markers=color:red|label:B|44.0389226,-121.3830719&key=AIzaSyBodCoZXT1xsVY_erI_cT1XGoWeBm6bx_I",
    "elements": [
      {
        "label": "Main Building",
        "lat": 44.0386741,
        "lng": -121.3829003
      },
      {
        "label": "Front Driveway",
        "lat": 44.0384256,
        "lng": -121.3823853
      },
      {
        "label": "Landscaped Area",
        "lat": 44.0387983,
        "lng": -121.3827973
      },
      {
        "label": "Detached Structure",
        "lat": 44.0386244,
        "lng": -121.3830719
      }
    ],
    "considerations": [
      {
        "label": "Dense Vegetation",
        "lat": 44.039171,
        "lng": -121.3837586
      }
    ],
    "recommendations": "To improve emergency response effectiveness on the property, enhancing clear access and navigation through the single access point could be beneficial. This may involve widening or marking the driveway to facilitate easier entry and exit for emergency vehicles. Managing and selectively trimming the dense vegetation, particularly near the access routes and around structures, could increase visibility and maneuvering space, supporting quicker response times. Designating clear pathways through landscaped areas may also help responders efficiently reach different sections of the property. Overall, these steps could support emergency operations by providing clearer and safer routes for responders to navigate during an incident."
  },
  "wildfire": {
    "nadir_url": "https://maps.googleapis.com/maps/api/staticmap?center=44.0386741,-121.3827286&zoom=18&size=640x640&maptype=satellite&markers=color:orange|label:1|44.0387238,-121.3827629&markers=color:orange|label:2|44.0386741,-121.3827286&markers=color:orange|label:3|44.0385499,-121.3826599&markers=color:orange|label:4|44.0387983,-121.3823853&markers=color:orange|label:5|44.0390468,-121.3822136&key=AIzaSyBodCoZXT1xsVY_erI_cT1XGoWeBm6bx_I",
    "conditions": [
      {
        "label": "Scattered Trees",
        "lat": 44.0384256,
        "lng": -121.3834152
      },
      {
        "label": "Defensible Space",
        "lat": 44.0386741,
        "lng": -121.3827286
      },
      {
        "label": "Open Terrain",
        "lat": 44.0389226,
        "lng": -121.3823853
      },
      {
        "label": "Limited Side Access",
        "lat": 44.0385499,
        "lng": -121.3829003
      },
      {
        "label": "Structure Surrounded by Vegetation",
        "lat": 44.0386741,
        "lng": -121.3827286
      }
    ],
    "recommendations": "Enhancing defensible space by increasing the separation between the structure and surrounding vegetation can improve wildfire resilience. Selectively thinning scattered trees and shrubs, particularly those immediately adjacent to the structure, may reduce fuel continuity and decrease the potential for fire spread. Given the presence of a vegetated perimeter and open terrain, maintaining open spaces between clusters of vegetation can further support these efforts and offer additional defensible areas. Vegetative management along the access route should be prioritized to ensure unobstructed firefighter access, which is crucial given the limited side access to the property. Managing these aspects of vegetation and ensuring clear, accessible routes can help foster more effective suppression support and enhance overall property preparedness. Regular maintenance of these areas, including the strategic removal of excess vegetation around the structure and along access routes, should be integrated into long-term wildfire resilience planning."
  },
  "lat": 44.0386741,
  "lng": -121.3827286
}