{
  "name": "BROWNFIELD (MATTHEW & KRISTIN)",
  "address": "3126 NW QUIET RIVER LN, BEND, OR 97701",
  "hoa": "",
  "nadir_raw": "https://maps.googleapis.com/maps/api/staticmap?center=44.082166,-121.3087872&zoom=19&size=640x640&maptype=satellite&key=AIzaSyBodCoZXT1xsVY_erI_cT1XGoWeBm6bx_I",
  "fr": {
    "nadir_url": "",
    "elements": [
      {
        "label": "Main Building",
        "lat": 44.082166,
        "lng": -121.30877
      },
      {
        "label": "Roof System",
        "lat": 44.0821536,
        "lng": -121.3087529
      },
      {
        "label": "Landscaped Area",
        "lat": 44.0823522,
        "lng": -121.308873
      },
      {
        "label": "Open Green Space",
        "lat": 44.0819798,
        "lng": -121.3086155
      }
    ],
    "considerations": [
      {
        "label": "Dense Vegetation",
        "lat": 44.0820419,
        "lng": -121.3085726
      }
    ],
    "recommendations": "Enhancing emergency response effectiveness for this property could include measures such as clearing dense vegetation to improve visibility and movement, particularly around the single access point and main routes that responders would use. Constructing a secondary access point or widening the existing single entry point could facilitate smoother ingress and egress, reducing potential bottlenecks. Maintaining open and unobstructed pathways around the main building and along the driveway may enhance responder mobility and allow for more efficient staging operations. Ensuring that any designated access routes are kept clear, especially near landscaped areas, can support timely navigation and expedite emergency response efforts throughout the site."
  },
  "wildfire": {
    "nadir_url": "",
    "conditions": [
      {
        "label": "Vegetation Adjacent to Structure",
        "lat": 44.0821039,
        "lng": -121.3086585
      },
      {
        "label": "Scattered Trees",
        "lat": 44.0822281,
        "lng": -121.3085297
      },
      {
        "label": "Vegetation Adjacent to Structure",
        "lat": 44.0820419,
        "lng": -121.3087443
      },
      {
        "label": "Open Terrain",
        "lat": 44.0822901,
        "lng": -121.3087443
      },
      {
        "label": "Defensible Space",
        "lat": 44.082166,
        "lng": -121.3087872
      }
    ],
    "recommendations": "Improving the separation between vegetation and the structure by managing vegetation adjacent to the building could enhance defensible space and help reduce potential structure exposure. Strategic pruning or removal of selected shrubs and small trees near the residence may reduce fuel continuity and lower the chance of direct flame contact. Maintaining a clear perimeter along any access routes by selectively thinning vegetation can support safer firefighter access and more efficient suppression operations. The open terrain should be preserved to ensure it continues to act as a natural buffer zone, potentially assisting in reducing fire spread across the property. Regular management of scattered trees and shrubs across the property may further support long-term wildfire resilience, promoting a well-prepared and defensible landscape."
  },
  "lat": 44.082166,
  "lng": -121.3087872
}