{
  "name": "Highlands 38",
  "address": "61960 Ballantrae Ct, Bend, OR 97702",
  "hoa": "highlands",
  "nadir_raw": "https://maps.googleapis.com/maps/api/staticmap?center=44.0516783,-121.3719781&zoom=20&size=640x640&maptype=satellite&key=AIzaSyBodCoZXT1xsVY_erI_cT1XGoWeBm6bx_I",
  "fr": {
    "nadir_url": "https://maps.googleapis.com/maps/api/staticmap?center=44.0516783,-121.3719781&zoom=20&size=640x640&maptype=satellite&markers=color:green|label:1|44.0516783,-121.3719781&markers=color:green|label:2|44.0515230,-121.3721927&markers=color:green|label:3|44.0515541,-121.3719781&markers=color:green|label:4|44.0515230,-121.3721498&markers=color:green|label:5|44.0516162,-121.3719781&markers=color:red|label:A|44.0515230,-121.3721927&markers=color:red|label:B|44.0518025,-121.3718064&key=AIzaSyBodCoZXT1xsVY_erI_cT1XGoWeBm6bx_I",
    "elements": [
      {
        "label": "Main Building",
        "lat": 44.0516783,
        "lng": -121.3719781
      },
      {
        "label": "Front Driveway",
        "lat": 44.0506101,
        "lng": -121.3719781
      },
      {
        "label": "Landscaped Area",
        "lat": 44.0514299,
        "lng": -121.3721498
      },
      {
        "label": "Open Green Space",
        "lat": 44.0519267,
        "lng": -121.3723214
      }
    ],
    "considerations": [
      {
        "label": "Single Access Point",
        "lat": 44.0509331,
        "lng": -121.3719781
      },
      {
        "label": "Open Terrain",
        "lat": 44.0521751,
        "lng": -121.3719781
      }
    ],
    "recommendations": "Enhancing emergency responder access and efficiency at the property may be achieved by implementing a few key improvements. Establishing multiple access points could facilitate smoother ingress and egress for emergency vehicles and personnel. The open terrain offers an advantage in unobstructed movement, and maintaining this space devoid of unnecessary structures or obstructions may assist responders in quickly positioning and deploying necessary resources. Enhancing visibility at the single access point and distinguishing it with clear markers could improve navigation for responders arriving on the scene. Keeping landscaped areas well-maintained and ensuring they do not encroach on essential access routes can support unimpeded movement, staging, and operational effectiveness around the main building and throughout the property."
  },
  "wildfire": {
    "nadir_url": "https://maps.googleapis.com/maps/api/staticmap?center=44.0516783,-121.3719781&zoom=20&size=640x640&maptype=satellite&markers=color:orange|label:1|44.0515230,-121.3718923&markers=color:orange|label:2|44.0517094,-121.3719781&markers=color:orange|label:3|44.0516472,-121.3719094&markers=color:orange|label:4|44.0516783,-121.3717635&markers=color:orange|label:5|44.0517715,-121.3718494&markers=color:orange|label:6|44.0516162,-121.3719352&markers=color:orange|label:7|44.0518336,-121.3720639&markers=color:orange|label:8|44.0515541,-121.3721927&markers=color:orange|label:9|44.0516783,-121.3721498&key=AIzaSyBodCoZXT1xsVY_erI_cT1XGoWeBm6bx_I",
    "conditions": [
      {
        "label": "Structure Surrounded by Vegetation",
        "lat": 44.0515541,
        "lng": -121.3719781
      },
      {
        "label": "Scattered Trees",
        "lat": 44.0521751,
        "lng": -121.3723214
      },
      {
        "label": "Scattered Shrubs",
        "lat": 44.0514299,
        "lng": -121.3716348
      },
      {
        "label": "Open Terrain",
        "lat": 44.0519267,
        "lng": -121.3709481
      },
      {
        "label": "Dense Vegetation Corridor",
        "lat": 44.0522993,
        "lng": -121.3718064
      },
      {
        "label": "Vegetation Adjacent to Structure",
        "lat": 44.0516783,
        "lng": -121.3719781
      },
      {
        "label": "Vegetation Adjacent to Access Route",
        "lat": 44.0511815,
        "lng": -121.3724931
      },
      {
        "label": "Defensible Space",
        "lat": 44.0516783,
        "lng": -121.3719781
      },
      {
        "label": "Single Access Route",
        "lat": 44.0509331,
        "lng": -121.3728364
      }
    ],
    "recommendations": "Promoting separation between the structure and surrounding vegetation, especially by reducing concentrations of vegetation directly adjacent to the structure and access route, could improve defensible space and may enhance property preparedness. Thinning scattered trees and shrubs, particularly in proximity to improvements and access routes, might decrease fuel continuity and support suppression efforts. Maintaining open terrain around the residence and minimizing vegetation along the perimeter of the property could further reduce potential fire spread. Clearing dense vegetation corridors and managing the vegetated perimeter will likely aid in creating buffer zones that support long-term vegetation management strategies. Enhancing the single access route by controlling vegetation growth may support firefighter access and operations while contributing to improved wildfire resilience."
  },
  "lat": 44.0516783,
  "lng": -121.3719781
}