{
  "name": "Vyanet Eugene",
  "address": " 862 Bethel Dr, Eugene OR 97402",
  "hoa": "",
  "nadir_raw": "https://maps.googleapis.com/maps/api/staticmap?center=44.0703885,-123.1377332&zoom=19&size=640x640&maptype=satellite&key=AIzaSyBodCoZXT1xsVY_erI_cT1XGoWeBm6bx_I",
  "fr": {
    "nadir_url": "",
    "elements": [
      {
        "label": "Main Building",
        "lat": 44.0703885,
        "lng": -123.137716
      },
      {
        "label": "Roof System",
        "lat": 44.0703885,
        "lng": -123.1377332
      },
      {
        "label": "Landscaped Area",
        "lat": 44.0702457,
        "lng": -123.1374929
      },
      {
        "label": "Vehicle Parking Area",
        "lat": 44.0704506,
        "lng": -123.13745
      },
      {
        "label": "Pedestrian Walkways",
        "lat": 44.0702457,
        "lng": -123.137407
      }
    ],
    "considerations": [
      {
        "label": "Limited Side Access",
        "lat": 44.0701402,
        "lng": -123.1375615
      },
      {
        "label": "Multiple Structures",
        "lat": 44.0703264,
        "lng": -123.137819
      }
    ],
    "recommendations": "Enhancing emergency responder access and movement could be achieved by ensuring main access routes to the property and between multiple structures remain unobstructed and clearly marked. Augmenting signage at entry points and pathways within the landscaped area may support navigation and help guide responders efficiently. Maintaining open side access routes could improve their ability to engage with all areas of the property effectively. Additionally, ensuring that vehicle parking areas are organized and do not impede primary access routes or pedestrian walkways may facilitate staging and maneuverability for first responders. Consistent maintenance of clear and direct pathways around the main building and across connecting walkways could enhance visibility and improve overall operational response effectiveness on the property."
  },
  "wildfire": {
    "nadir_url": "",
    "conditions": [
      {
        "label": "Vegetation Adjacent to Structure",
        "lat": 44.0703264,
        "lng": -123.1376045
      },
      {
        "label": "Scattered Trees",
        "lat": 44.0703885,
        "lng": -123.1374757
      },
      {
        "label": "Vegetated Perimeter",
        "lat": 44.0702022,
        "lng": -123.1373899
      },
      {
        "label": "Limited Defensible Space",
        "lat": 44.0703885,
        "lng": -123.1376903
      },
      {
        "label": "Vegetation Adjacent to Fence",
        "lat": 44.0702333,
        "lng": -123.1377332
      },
      {
        "label": "Vegetation Adjacent to Access Route",
        "lat": 44.0704506,
        "lng": -123.1375615
      }
    ],
    "recommendations": "Enhancing defensible space around the property by creating greater separation between vegetation and structures could improve wildfire resilience. Thinning the scattered trees to increase spacing and reduce continuous fuel layers may minimize opportunities for fire to spread. Managing and trimming vegetation along the perimeter and adjacent to fences could reduce potential fire pathways, while careful removal or relocation of vegetation touching the access route can support firefighter movement and suppression efforts. Efforts to sustain and periodically reassess defensible space and maintain these practices long-term may further bolster the property's readiness for wildfire events."
  },
  "lat": 44.0703885,
  "lng": -123.1377332
}