{
  "name": "Highlands 22",
  "address": "18883 Sutherland Ct, Bend, OR 97702",
  "hoa": "highlands",
  "nadir_raw": "https://maps.googleapis.com/maps/api/staticmap?center=44.043717,-121.3769822&zoom=18&size=640x640&maptype=satellite&key=AIzaSyBodCoZXT1xsVY_erI_cT1XGoWeBm6bx_I",
  "fr": {
    "nadir_url": "https://maps.googleapis.com/maps/api/staticmap?center=44.043717,-121.3769822&zoom=18&size=640x640&maptype=satellite&markers=color:green|label:1|44.0437170,-121.3770165&markers=color:green|label:2|44.0432698,-121.3765016&markers=color:green|label:3|44.0437170,-121.3770165&markers=color:green|label:4|44.0435928,-121.3768105&markers=color:green|label:5|44.0430959,-121.3776688&markers=color:green|label:6|44.0439654,-121.3773255&markers=color:red|label:A|44.0443381,-121.3776688&markers=color:red|label:B|44.0434686,-121.3768105&markers=color:red|label:C|44.0438412,-121.3762956&key=AIzaSyBodCoZXT1xsVY_erI_cT1XGoWeBm6bx_I",
    "elements": [
      {
        "label": "Main Building",
        "lat": 44.043717,
        "lng": -121.3769822
      },
      {
        "label": "Detached Structure",
        "lat": 44.0433443,
        "lng": -121.3766389
      },
      {
        "label": "Front Driveway",
        "lat": 44.0430959,
        "lng": -121.3773255
      },
      {
        "label": "Landscaped Area",
        "lat": 44.0438412,
        "lng": -121.3768105
      },
      {
        "label": "Open Green Space",
        "lat": 44.0439654,
        "lng": -121.3776688
      }
    ],
    "considerations": [
      {
        "label": "Multiple Structures",
        "lat": 44.0435928,
        "lng": -121.3768105
      }
    ],
    "recommendations": "Enhancing emergency responder access to the property could be supported by maintaining a clear and unobstructed front driveway, especially considering the single access point and the presence of multiple structures. Ensuring that the driveway is well-marked and sufficiently wide could facilitate the movement of emergency vehicles and personnel. Clearly delineating the boundaries of the landscaped area and open green space could assist responders in efficiently navigating the site. Marking entrances and exits to each structure with visible signage may enhance visibility and ease of access, while designated staging areas on the property could support efficient deployment of emergency operations. Regular maintenance of the surrounding landscape to manage overgrowth could further ensure that responders can move freely and safely across the property, optimizing their response efforts."
  },
  "wildfire": {
    "nadir_url": "https://maps.googleapis.com/maps/api/staticmap?center=44.043717,-121.3769822&zoom=18&size=640x640&maptype=satellite&markers=color:orange|label:1|44.0437915,-121.3772225&markers=color:orange|label:2|44.0439654,-121.3771539&markers=color:orange|label:3|44.0434686,-121.3773255&markers=color:orange|label:4|44.0437170,-121.3769822&markers=color:orange|label:5|44.0438412,-121.3768105&markers=color:orange|label:6|44.0437170,-121.3770509&markers=color:orange|label:7|44.0437170,-121.3774972&key=AIzaSyBodCoZXT1xsVY_erI_cT1XGoWeBm6bx_I",
    "conditions": [
      {
        "label": "Structure Surrounded by Vegetation",
        "lat": 44.043717,
        "lng": -121.3769822
      },
      {
        "label": "Scattered Trees",
        "lat": 44.0444623,
        "lng": -121.3776688
      },
      {
        "label": "Vegetation Adjacent to Structure",
        "lat": 44.0437667,
        "lng": -121.3769135
      },
      {
        "label": "Limited Defensible Space",
        "lat": 44.043717,
        "lng": -121.3769822
      },
      {
        "label": "Vegetation Adjacent to Fence",
        "lat": 44.0434686,
        "lng": -121.3768105
      },
      {
        "label": "Long Driveway",
        "lat": 44.0442139,
        "lng": -121.3780122
      },
      {
        "label": "Scattered Shrubs",
        "lat": 44.0434686,
        "lng": -121.3762956
      },
      {
        "label": "Open Fuel Break",
        "lat": 44.0442139,
        "lng": -121.3773255
      }
    ],
    "recommendations": "Enhancing defensible space could be achieved by managing vegetation adjacent to the structure and along the fence to limit the potential for fire spread. Increasing separation between scattered trees and shrubs around the property may reduce fuel continuity and improve wildfire resilience. Maintaining open terrain and preserving the existing fuel break could support long-term vegetation management and act as a barrier to fire progression. Given the long driveway, ensuring it is clear of overgrown vegetation could enhance firefighter access and support suppression efforts. Strategic vegetation reduction around the structure and towards the vegetated perimeter might improve defensible space and reduce potential structure exposure."
  },
  "lat": 44.043717,
  "lng": -121.3769822
}