{
  "name": "CROWDER RES (CHRIS)",
  "address": "2981 NW STARVIEW DR, BEND, OR 97703",
  "hoa": "",
  "nadir_raw": "https://maps.googleapis.com/maps/api/staticmap?center=44.0804979,-121.3419953&zoom=19&size=640x640&maptype=satellite&key=AIzaSyBodCoZXT1xsVY_erI_cT1XGoWeBm6bx_I",
  "fr": {
    "nadir_url": "",
    "elements": [
      {
        "label": "Main Building",
        "lat": 44.0804979,
        "lng": -121.3419953
      },
      {
        "label": "Front Driveway",
        "lat": 44.0804979,
        "lng": -121.3417807
      },
      {
        "label": "Landscaped Area",
        "lat": 44.0804358,
        "lng": -121.3418236
      },
      {
        "label": "Vehicle Parking Area",
        "lat": 44.0804669,
        "lng": -121.3418666
      },
      {
        "label": "Perimeter Fencing",
        "lat": 44.0803738,
        "lng": -121.3420811
      },
      {
        "label": "Pedestrian Walkways",
        "lat": 44.08056,
        "lng": -121.3419095
      }
    ],
    "considerations": [
      {
        "label": "Limited Rear Access",
        "lat": 44.0804979,
        "lng": -121.342167
      }
    ],
    "recommendations": "To enhance emergency responder effectiveness, the property could benefit from establishing additional access points, particularly at the rear, to facilitate quicker response times and more efficient operation flow. Ensuring that the main building and all areas of interest are easily reachable via clearly marked and unobstructed pathways could assist responders in movement and staging. Maintaining the landscaped area and ensuring it does not encroach on walkways or the driveway would support clear visibility and provide more efficient navigation for personnel. Additionally, reevaluating the layout of the vehicle parking area to minimize obstacles near access routes could aid in seamless entry and exit for emergency vehicles. Finally, removing or adjusting sections of the perimeter fencing where necessary may enhance overall access, enabling responders to reach various parts of the property swiftly in urgent situations."
  },
  "wildfire": {
    "nadir_url": "",
    "conditions": [
      {
        "label": "Scattered Trees",
        "lat": 44.080622,
        "lng": -121.3420811
      },
      {
        "label": "Vegetation Adjacent to Structure",
        "lat": 44.08056,
        "lng": -121.3419953
      },
      {
        "label": "Vegetated Perimeter",
        "lat": 44.0804979,
        "lng": -121.3422957
      },
      {
        "label": "Open Terrain",
        "lat": 44.080622,
        "lng": -121.3418236
      },
      {
        "label": "Defensible Space",
        "lat": 44.0804979,
        "lng": -121.3419095
      },
      {
        "label": "Vegetation Adjacent to Access Route",
        "lat": 44.0804358,
        "lng": -121.3417378
      },
      {
        "label": "Open Fuel Break",
        "lat": 44.0804358,
        "lng": -121.3422099
      }
    ],
    "recommendations": "Improving vegetation management around the structure and ensuring greater separation from combustible vegetation could enhance defensible space and reduce exposure. Managing vegetation adjacent to the structure and along the access route may support firefighter access and suppression operations. Maintaining and potentially expanding the open fuel break surrounding the property will further reduce fuel continuity, providing an effective buffer. Careful management of vegetated perimeters, particularly in clusters of trees, could reduce potential fire intensity. Emphasizing the preservation of open terrain is important for maintaining defensible space and may support the long-term resilience of the property. Regular maintenance to manage tree clusters and scattered trees will help ensure ongoing defensible space effectiveness and may contribute to overall property preparedness."
  },
  "lat": 44.0804979,
  "lng": -121.3419953
}