{
  "name": "BENNETT RES (LOGAN & JULIE)",
  "address": "1120 NW HILLSIDE PARK DR, BEND, OR 97703",
  "hoa": "",
  "nadir_raw": "https://maps.googleapis.com/maps/api/staticmap?center=44.0729565,-121.327907&zoom=19&size=640x640&maptype=satellite&key=AIzaSyBodCoZXT1xsVY_erI_cT1XGoWeBm6bx_I",
  "fr": {
    "nadir_url": "",
    "elements": [
      {
        "label": "Main Building",
        "lat": 44.0729565,
        "lng": -121.327907
      },
      {
        "label": "Landscaped Area",
        "lat": 44.0730186,
        "lng": -121.3278212
      },
      {
        "label": "Perimeter Fencing",
        "lat": 44.0728944,
        "lng": -121.3281216
      }
    ],
    "considerations": [
      {
        "label": "Limited Rear Access",
        "lat": 44.0728323,
        "lng": -121.3277353
      }
    ],
    "recommendations": "To enhance responder access and operational effectiveness, maintaining a clear and unobstructed front driveway could significantly support entry for emergency vehicles. Considering the dense vegetation, trimming and managing these areas may improve visibility and facilitate navigation around the main building and landscaped sections. Identifying potential alternative access routes or ensuring that existing pathways are well-marked and clear could assist in addressing the limited rear access, potentially allowing for better movement during emergencies. Additionally, ensuring that the perimeter fencing has designated access points that are easily identifiable and accessible could assist responders by supporting efficient entry and exit when necessary. These measures may collectively enhance the staging and response operations for emergency personnel on the property."
  },
  "wildfire": {
    "nadir_url": "",
    "conditions": [
      {
        "label": "Dense Tree Canopy",
        "lat": 44.0730186,
        "lng": -121.3280787
      },
      {
        "label": "Vegetation Adjacent to Structure",
        "lat": 44.0728944,
        "lng": -121.3278641
      },
      {
        "label": "Shrubs Under Trees",
        "lat": 44.0729255,
        "lng": -121.3279499
      },
      {
        "label": "Fuel Continuity",
        "lat": 44.0729565,
        "lng": -121.327907
      },
      {
        "label": "Limited Defensible Space",
        "lat": 44.0729255,
        "lng": -121.327907
      },
      {
        "label": "Vegetated Access Route",
        "lat": 44.0728013,
        "lng": -121.3277353
      }
    ],
    "recommendations": "Improving defensible space around the property could be achieved by increasing the separation between the structure and adjacent vegetation as well as reducing the density of shrubs under trees to interrupt fuel continuity. Enhancing the separation of scattered trees and managing the dense tree canopy could further reduce opportunities for fire to spread. Addressing vegetation adjacent to the access route and near the perimeter of the property may improve firefighter access and support suppression efforts. By thinning the cluster of trees and managing vegetation along the access route, access routes could be better maintained, providing clearer pathways for emergency responders. These actions can collectively support long-term wildfire resilience and readiness."
  },
  "lat": 44.0729565,
  "lng": -121.327907
}