{
  "name": "BONI/HUSON (DR HANK & YVONNE)",
  "address": "2480 NW TOWER ROCK, BEND, OR 97701",
  "hoa": "",
  "nadir_raw": "https://maps.googleapis.com/maps/api/staticmap?center=44.0720231,-121.3364339&zoom=19&size=640x640&maptype=satellite&key=AIzaSyBodCoZXT1xsVY_erI_cT1XGoWeBm6bx_I",
  "fr": {
    "nadir_url": "",
    "elements": [
      {
        "label": "Main Building",
        "lat": 44.0719921,
        "lng": -121.3364339
      },
      {
        "label": "Roof System",
        "lat": 44.0719921,
        "lng": -121.3364339
      },
      {
        "label": "Landscaped Area",
        "lat": 44.0720852,
        "lng": -121.3366056
      },
      {
        "label": "Open Green Space",
        "lat": 44.0718989,
        "lng": -121.3362622
      },
      {
        "label": "Perimeter Fencing",
        "lat": 44.07193,
        "lng": -121.3364768
      }
    ],
    "considerations": [
      {
        "label": "Dense Vegetation",
        "lat": 44.0721473,
        "lng": -121.3366056
      },
      {
        "label": "Limited Rear Access",
        "lat": 44.0718989,
        "lng": -121.3363481
      }
    ],
    "recommendations": "To support effective emergency response outcomes, ensuring unobstructed access routes to the property and around the main building is crucial. Addressing the dense vegetation could enhance navigation and visibility for emergency responders, providing clear lines of sight and easier movement in and around the property. Establishing clear rear access to the property would support emergency responder ingress and egress, ensuring quicker response times in situations requiring entry from multiple points. Additionally, adapting the layout to ensure that all key areas, such as entrances and pathways, are clearly visible and accessible may facilitate prompt and effective response efforts. Maintaining open green spaces and ensuring perimeter fencing does not impede access points could assist in creating efficient staging areas for emergency personnel and vehicles, enhancing overall operational efficiency."
  },
  "wildfire": {
    "nadir_url": "",
    "conditions": [
      {
        "label": "Scattered Trees",
        "lat": 44.0720852,
        "lng": -121.3365197
      },
      {
        "label": "Vegetation Adjacent to Structure",
        "lat": 44.0719921,
        "lng": -121.336391
      },
      {
        "label": "Vegetated Perimeter",
        "lat": 44.0720231,
        "lng": -121.3360906
      },
      {
        "label": "Open Terrain",
        "lat": 44.0718989,
        "lng": -121.3361764
      },
      {
        "label": "Defensible Space",
        "lat": 44.0720231,
        "lng": -121.3364339
      },
      {
        "label": "Vegetation Between Structures",
        "lat": 44.0722093,
        "lng": -121.3364768
      }
    ],
    "recommendations": "Improving defensible space around the property could be achieved by managing the dense tree canopy and reducing fuel continuity, particularly where trees are in close proximity to structures. Increasing the separation between scattered trees and structures can also support access for firefighters and help limit fire spread. Particular attention to vegetation adjacent to structures should be focused on removal or adjustment to reduce exposure. Maintaining or expanding open terrain areas and ensuring the vegetated perimeter does not create a continuous fuel bed can further enhance defensible space. It may be beneficial to manage vegetation between structures to reduce the potential for fire transfer. Preserving clear areas around the tree cluster will help isolate potential fire sources and maintain open space to reduce fuel load. Continued attention to vegetation management at the property perimeter could support long-term wildfire resilience and help maintain effective defensible space."
  },
  "lat": 44.0720231,
  "lng": -121.3364339
}