{
  "name": "CARROLL RES (DR JOHN & CAROL)",
  "address": "21800 BUTTE RANCH RD, BEND, OR 97702",
  "hoa": "",
  "nadir_raw": "https://maps.googleapis.com/maps/api/staticmap?center=43.9832896,-121.2347752&zoom=19&size=640x640&maptype=satellite&key=AIzaSyBodCoZXT1xsVY_erI_cT1XGoWeBm6bx_I",
  "fr": {
    "nadir_url": "",
    "elements": [
      {
        "label": "Main Building",
        "lat": 43.9832399,
        "lng": -121.2347409
      },
      {
        "label": "Front Driveway",
        "lat": 43.9829912,
        "lng": -121.2343289
      },
      {
        "label": "Open Green Space",
        "lat": 43.983787,
        "lng": -121.2351185
      },
      {
        "label": "Landscaped Area",
        "lat": 43.9830906,
        "lng": -121.2348439
      },
      {
        "label": "Detached Structure",
        "lat": 43.9833642,
        "lng": -121.2340199
      }
    ],
    "considerations": [
      {
        "label": "Single Access Point",
        "lat": 43.9824689,
        "lng": -121.2341572
      },
      {
        "label": "Open Terrain",
        "lat": 43.9840357,
        "lng": -121.2351185
      }
    ],
    "recommendations": "Enhancing the current property layout to improve emergency response effectiveness could involve creating or designating multiple access points which may facilitate quicker entry and exit for responders. Expanding the clearing around the main building might provide additional maneuvering room, enhancing responder visibility and equipment staging capabilities. A maintained open terrain is beneficial, supporting efficient responder movement, yet it could also be strategically planned to direct responders swiftly to key areas like the main building and detached structure. Clearly identifying each structure on the property with visible signage can assist in navigation and expedite operations. If possible, establishing wider driveways and turnarounds could significantly support larger emergency vehicles. Consistently maintaining the landscaped area to prevent obstructions may also contribute positively to both access and operational efficiency."
  },
  "wildfire": {
    "nadir_url": "",
    "conditions": [
      {
        "label": "Scattered Trees",
        "lat": 43.9835383,
        "lng": -121.2344319
      },
      {
        "label": "Vegetation Adjacent to Structure",
        "lat": 43.9832896,
        "lng": -121.2346035
      },
      {
        "label": "Scattered Shrubs",
        "lat": 43.9830409,
        "lng": -121.2349469
      },
      {
        "label": "Vegetated Perimeter",
        "lat": 43.9827922,
        "lng": -121.2354618
      },
      {
        "label": "Limited Defensible Space",
        "lat": 43.9832896,
        "lng": -121.2344319
      },
      {
        "label": "Open Terrain",
        "lat": 43.9825435,
        "lng": -121.2340886
      },
      {
        "label": "Shrubs Under Trees",
        "lat": 43.983414,
        "lng": -121.2347752
      },
      {
        "label": "Vegetation Adjacent to Access Route",
        "lat": 43.9830409,
        "lng": -121.2342602
      },
      {
        "label": "Vegetated Access Route",
        "lat": 43.9829165,
        "lng": -121.2339169
      }
    ],
    "recommendations": "Improving defensible space on the property could be achieved by increasing separation between the structure and adjacent vegetation, which would help reduce vegetation continuity near the residence. It is advisable to manage the scattered shrubs, particularly those under trees and adjacent to access routes, by thinning or strategically removing some to reduce fuels and enhance suppression capabilities. Maintaining open terrain around the structure and access routes could further support firefighter access by ensuring clear passage. Additionally, attention to the vegetated perimeter might offer opportunities to create a buffer zone that lessens potential fire intensity. Managing the vegetated access routes could also enhance egress for residents and ingress for firefighting personnel. Consistent vegetation management around the property will improve wildfire resilience and promote effective suppression efforts."
  },
  "lat": 43.9832896,
  "lng": -121.2347752
}