{
  "name": "Highlands 28",
  "address": "61951 Kildonan Ct, Bend, OR 97702",
  "hoa": "highlands",
  "nadir_raw": "https://maps.googleapis.com/maps/api/staticmap?center=44.0492055,-121.3792057&zoom=18&size=640x640&maptype=satellite&key=AIzaSyBodCoZXT1xsVY_erI_cT1XGoWeBm6bx_I",
  "fr": {
    "nadir_url": "https://maps.googleapis.com/maps/api/staticmap?center=44.0492055,-121.3792057&zoom=18&size=640x640&maptype=satellite&markers=color:green|label:1|44.0492055,-121.3792744&markers=color:green|label:2|44.0490813,-121.3792057&markers=color:green|label:3|44.0489571,-121.3795490&markers=color:green|label:4|44.0491558,-121.3792744&markers=color:green|label:5|44.0493297,-121.3791370&markers=color:red|label:A|44.0485844,-121.3784504&markers=color:red|label:B|44.0489571,-121.3792057&key=AIzaSyBodCoZXT1xsVY_erI_cT1XGoWeBm6bx_I",
    "elements": [
      {
        "label": "Main Building",
        "lat": 44.0492055,
        "lng": -121.3792057
      },
      {
        "label": "Roof System",
        "lat": 44.0492055,
        "lng": -121.3792057
      },
      {
        "label": "Landscaped Area",
        "lat": 44.0489571,
        "lng": -121.3793774
      },
      {
        "label": "Perimeter Fencing",
        "lat": 44.0494539,
        "lng": -121.379034
      }
    ],
    "considerations": [
      {
        "label": "Dense Vegetation",
        "lat": 44.0489571,
        "lng": -121.379549
      },
      {
        "label": "Limited Visibility",
        "lat": 44.0492055,
        "lng": -121.3793774
      },
      {
        "label": "Single Access Point",
        "lat": 44.0487087,
        "lng": -121.3781757
      }
    ],
    "recommendations": "Modifying the landscaping to reduce dense vegetation around access routes and near the main building could enhance visibility and responder access throughout the property. Creating additional access points and maintaining clear, unobstructed pathways may assist emergency responders in navigating the site more effectively and efficiently. Improving visibility through strategic lighting or signage and ensuring clear sightlines toward the building may further support emergency operations. Additionally, reviewing the current perimeter fencing layout for potential dedicated emergency entry routes may assist in timely intervention. These measures together could facilitate a safer and quicker response by providing better movement for emergency personnel and equipment."
  },
  "wildfire": {
    "nadir_url": "https://maps.googleapis.com/maps/api/staticmap?center=44.0492055,-121.3792057&zoom=18&size=640x640&maptype=satellite&markers=color:orange|label:1|44.0490813,-121.3791027&markers=color:orange|label:2|44.0489571,-121.3792400&markers=color:orange|label:3|44.0492055,-121.3793774&markers=color:orange|label:4|44.0488329,-121.3790340&markers=color:orange|label:5|44.0492055,-121.3788624&markers=color:orange|label:6|44.0490068,-121.3791027&markers=color:orange|label:7|44.0491061,-121.3791370&markers=color:orange|label:8|44.0487087,-121.3795490&markers=color:orange|label:9|44.0492552,-121.3789310&markers=color:orange|label:0|44.0490564,-121.3790684&key=AIzaSyBodCoZXT1xsVY_erI_cT1XGoWeBm6bx_I",
    "conditions": [
      {
        "label": "Dense Tree Canopy",
        "lat": 44.0492055,
        "lng": -121.379034
      },
      {
        "label": "Scattered Trees",
        "lat": 44.0487087,
        "lng": -121.379549
      },
      {
        "label": "Vegetated Perimeter",
        "lat": 44.0492055,
        "lng": -121.380064
      },
      {
        "label": "Vegetation Adjacent to Structure",
        "lat": 44.0490813,
        "lng": -121.3792057
      },
      {
        "label": "Vegetation Between Structures",
        "lat": 44.0497023,
        "lng": -121.3788624
      },
      {
        "label": "Scattered Shrubs",
        "lat": 44.0485844,
        "lng": -121.3797207
      },
      {
        "label": "Limited Defensible Space",
        "lat": 44.0493297,
        "lng": -121.379034
      },
      {
        "label": "Brush Concentration",
        "lat": 44.0489571,
        "lng": -121.3788624
      },
      {
        "label": "Vegetated Access Route",
        "lat": 44.0488329,
        "lng": -121.3785191
      }
    ],
    "recommendations": "Enhancing the distance between vegetation and structures, as well as managing the dense tree canopy and scattered shrubs, could improve defensible space and reduce the potential for fire spread. Reducing vegetation between structures and addressing the vegetated perimeter may decrease fuel continuity and support potential suppression efforts. Creating separation between the brush concentrations and key features of the property could further mitigate fire exposure. Cultivating open terrain areas and reducing vegetative fuel adjacent to structures can limit opportunities for direct flame contact and ember accumulation. Maintaining or enhancing vegetation management along the vegetated access route may improve access for firefighters, ensuring safer and more effective suppression operations. Overall, implementing these actions could support long-term wildfire resilience and enhance the property's preparedness."
  },
  "lat": 44.0492055,
  "lng": -121.3792057
}