{
  "name": "CANNABIS NATION",
  "address": "56789 LUNAR DR, BEND, OR 97707",
  "hoa": "",
  "nadir_raw": "https://maps.googleapis.com/maps/api/staticmap?center=43.8627231,-121.4568194&zoom=19&size=640x640&maptype=satellite&key=AIzaSyBodCoZXT1xsVY_erI_cT1XGoWeBm6bx_I",
  "fr": {
    "nadir_url": "",
    "elements": [
      {
        "label": "Main Building",
        "lat": 43.8627106,
        "lng": -121.4568022
      },
      {
        "label": "Detached Structure",
        "lat": 43.8626296,
        "lng": -121.4566649
      },
      {
        "label": "Landscaped Area",
        "lat": 43.8627854,
        "lng": -121.4568623
      },
      {
        "label": "Open Green Space",
        "lat": 43.8628477,
        "lng": -121.4568194
      }
    ],
    "considerations": [
      {
        "label": "Dense Vegetation",
        "lat": 43.8627543,
        "lng": -121.4569481
      }
    ],
    "recommendations": "Facilitating emergency responder access and operations on the property could benefit from some adjustments. Clearing or trimming dense vegetation in strategic areas can improve visibility and maneuverability for responders, facilitating faster access to critical zones. Enhancing side access points, particularly through the addition of unobstructed pathways or widening existing passages, may enhance navigation and mobility for emergency vehicles and personnel. Ensuring that access routes are clearly marked and distinguishable from surrounding landscaping can support efficient staging and movement throughout the property. Additionally, establishing clear zones around structures and fence boundaries could assist responders with quick identification and access, supporting timely and effective emergency operations."
  },
  "wildfire": {
    "nadir_url": "",
    "conditions": [
      {
        "label": "Tree Cluster",
        "lat": 43.8628166,
        "lng": -121.457034
      },
      {
        "label": "Vegetation Adjacent to Structure",
        "lat": 43.8627231,
        "lng": -121.4568623
      },
      {
        "label": "Scattered Trees",
        "lat": 43.8628477,
        "lng": -121.4567336
      },
      {
        "label": "Open Terrain",
        "lat": 43.8625985,
        "lng": -121.4567765
      },
      {
        "label": "Limited Defensible Space",
        "lat": 43.8627231,
        "lng": -121.4568194
      }
    ],
    "recommendations": "Enhancing defensible space by increasing the separation between tree clusters and the structure, as well as managing vegetation adjacent to improvements, may support property preparedness and reduce potential exposure. Reducing vegetation concentrations that are adjacent to both the structure and any fencing could also diminish fuel continuity and help mitigate fire spread. Maintaining and expanding open terrain around the residence may further bolster defensible space effectiveness. Managing scattered trees to break up dense vegetation clusters while maintaining healthy tree spacing can help reduce vertical and horizontal fuel continuity across the property. Tactical management of the vegetated perimeter could help create a resilient fuel break, limiting the encroachment of fire into more vulnerable areas. Attention to these areas may ultimately support firefighter access and suppression operations."
  },
  "lat": 43.8627231,
  "lng": -121.4568194
}