{
  "name": "CASEY CHAN BLDG E1",
  "address": "62968 OB RILEY ROAD BLDG E1, BEND, OR 97701",
  "hoa": "",
  "nadir_raw": "https://maps.googleapis.com/maps/api/staticmap?center=44.0863984,-121.3080961&zoom=19&size=640x640&maptype=satellite&key=AIzaSyBodCoZXT1xsVY_erI_cT1XGoWeBm6bx_I",
  "fr": {
    "nadir_url": "",
    "elements": [
      {
        "label": "Main Building",
        "lat": 44.086386,
        "lng": -121.3080789
      },
      {
        "label": "Sidewalk Network",
        "lat": 44.0863053,
        "lng": -121.3080103
      },
      {
        "label": "Landscaped Area",
        "lat": 44.0864294,
        "lng": -121.3082248
      }
    ],
    "considerations": [
      {
        "label": "Dense Vegetation",
        "lat": 44.0864605,
        "lng": -121.3082678
      },
      {
        "label": "Limited Rear Access",
        "lat": 44.0862122,
        "lng": -121.3080961
      }
    ],
    "recommendations": "Enhancing emergency response at this property could benefit from ensuring that pathways within the sidewalk network are kept clear to facilitate unobstructed responder access and movement. Trimming and managing dense vegetation surrounding key areas could improve visibility and allow for more efficient navigation during emergency operations. Establishing clear and well-marked access points to the rear of the property, or creating alternative routes, may enhance movement, enabling responders to reach all necessary areas with greater ease. Providing clear signage or indicators of access routes could further support effective staging and coordination of emergency activities. Regular monitoring and maintenance of these elements could collectively contribute to better responder safety and operational efficiency."
  },
  "wildfire": {
    "nadir_url": "",
    "conditions": [
      {
        "label": "Tree Cluster",
        "lat": 44.0863736,
        "lng": -121.3080789
      },
      {
        "label": "Vegetation Adjacent to Structure",
        "lat": 44.0864108,
        "lng": -121.3080532
      },
      {
        "label": "Brush Adjacent to Structure",
        "lat": 44.0863612,
        "lng": -121.3080274
      },
      {
        "label": "Open Terrain",
        "lat": 44.0864605,
        "lng": -121.3079244
      },
      {
        "label": "Vegetated Perimeter",
        "lat": 44.0863363,
        "lng": -121.3077957
      },
      {
        "label": "Vegetation Adjacent to Access Route",
        "lat": 44.0862743,
        "lng": -121.3080961
      },
      {
        "label": "Limited Defensible Space",
        "lat": 44.0863674,
        "lng": -121.3080103
      },
      {
        "label": "Dense Tree Canopy",
        "lat": 44.0864294,
        "lng": -121.308139
      }
    ],
    "recommendations": "Enhancing defensible space by increasing the distance between structures and adjacent vegetation, particularly in areas where dense trees and brush are present, could support both firefighter access and suppression efforts. Managing and thinning the dense tree canopy surrounding structures may reduce fuel continuity and limit potential fire spread to the structure. In areas where vegetation directly borders access routes, continued maintenance will preserve clear pathways for emergency vehicles. Additionally, where clusters of trees exist, strategic thinning could further reduce fuel concentrations and improve wildfire resilience. Maintaining the open terrain and creating strategic breaks within the vegetated perimeter could further support fire suppression operations and protect structures. By integrating these approaches, property preparedness and long-term resilience against wildfires could be significantly improved."
  },
  "lat": 44.0863984,
  "lng": -121.3080961
}