{
  "name": "Vyanet Albany",
  "address": "2443 SE Brighton Wy, Albany OR 97322",
  "hoa": "",
  "nadir_raw": "https://maps.googleapis.com/maps/api/staticmap?center=44.6273464,-123.0751134&zoom=19&size=640x640&maptype=satellite&key=AIzaSyBodCoZXT1xsVY_erI_cT1XGoWeBm6bx_I",
  "fr": {
    "nadir_url": "",
    "elements": [
      {
        "label": "Main Building",
        "lat": 44.6273771,
        "lng": -123.0748988
      },
      {
        "label": "Vehicle Parking Area",
        "lat": 44.6273771,
        "lng": -123.0750705
      },
      {
        "label": "Landscaped Area",
        "lat": 44.6272849,
        "lng": -123.0749417
      },
      {
        "label": "Access Road",
        "lat": 44.6273464,
        "lng": -123.074813
      },
      {
        "label": "Perimeter Fencing",
        "lat": 44.6273157,
        "lng": -123.0749847
      }
    ],
    "considerations": [
      {
        "label": "Single Access Point",
        "lat": 44.6273464,
        "lng": -123.0748559
      },
      {
        "label": "Limited Rear Access",
        "lat": 44.6274079,
        "lng": -123.0748988
      },
      {
        "label": "Dense Vegetation",
        "lat": 44.6274079,
        "lng": -123.0747701
      }
    ],
    "recommendations": "Improving emergency response effectiveness for the property could involve several strategic actions. Introducing an additional access point where feasible may enhance responder ingress and egress, particularly given the current single access point and limited rear access. Strategically trimming or removing dense vegetation around key access routes and visibility areas could facilitate clearer sightlines and movement for responding units. Regular maintenance of the access road and vehicle parking area could ensure unobstructed entry for emergency vehicles. Clearly marking and, if possible, widening pathways around the perimeter could support more efficient staging and navigation, enabling quicker deployment of resources. Furthermore, ensuring that perimeter fencing is designed in a way that does not restrict responder mobility would support overall operational readiness."
  },
  "wildfire": {
    "nadir_url": "",
    "conditions": [
      {
        "label": "Vegetation Adjacent to Structure",
        "lat": 44.6273095,
        "lng": -123.0750962
      },
      {
        "label": "Scattered Trees",
        "lat": 44.6275309,
        "lng": -123.0752851
      },
      {
        "label": "Vegetated Perimeter",
        "lat": 44.6271004,
        "lng": -123.0749417
      },
      {
        "label": "Defensible Space",
        "lat": 44.6273464,
        "lng": -123.0751134
      },
      {
        "label": "Open Terrain",
        "lat": 44.6271004,
        "lng": -123.074813
      }
    ],
    "recommendations": "Enhancing the separation between vegetation and the structure, particularly where vegetation is currently adjacent to the buildings, could improve defensible space and minimize potential structure exposure. Managing scattered trees to reduce fuel continuity will further support wildfire resilience by decreasing the likelihood of fire spread toward the structures. Maintaining the open terrain around the property, in addition to ensuring vegetation near the perimeter remains managed and separated, may contribute positively to the property's overall defensible space. Regular maintenance and strategic removal or trimming of vegetation immediately surrounding the structures would support firefighter access and suppression efforts. Continuously preserving these open areas and managing the vegetative perimeter could bolster long-term fire preparedness and support effective fuel management strategies."
  },
  "lat": 44.6273464,
  "lng": -123.0751134
}