{
  "name": "CROMER RES (KENNETH)",
  "address": "2777 NW THREE SISTERS DRIVE, BEND, OR 97703",
  "hoa": "",
  "nadir_raw": "https://maps.googleapis.com/maps/api/staticmap?center=44.0773777,-121.3379333&zoom=19&size=640x640&maptype=satellite&key=AIzaSyBodCoZXT1xsVY_erI_cT1XGoWeBm6bx_I",
  "fr": {
    "nadir_url": "",
    "elements": [
      {
        "label": "Main Building",
        "lat": 44.0773777,
        "lng": -121.3379505
      },
      {
        "label": "Roof System",
        "lat": 44.0773777,
        "lng": -121.3379505
      },
      {
        "label": "Landscaped Area",
        "lat": 44.0772225,
        "lng": -121.3379333
      },
      {
        "label": "Patio Area",
        "lat": 44.0773156,
        "lng": -121.338105
      },
      {
        "label": "Open Green Space",
        "lat": 44.0771604,
        "lng": -121.3380191
      }
    ],
    "considerations": [
      {
        "label": "Dense Vegetation",
        "lat": 44.0775639,
        "lng": -121.3378904
      },
      {
        "label": "Limited Rear Access",
        "lat": 44.0771915,
        "lng": -121.3378475
      }
    ],
    "recommendations": "Enhancing emergency response effectiveness on the property could be achieved by addressing the dense vegetation, which may obstruct responder access and visibility. Strategically trimming or thinning the landscaping could improve sightlines and facilitate easier navigation for responders approaching from various directions. Additionally, increasing access points or expanding the existing ones around the rear of the property may enhance route flexibility and allow for more efficient emergency operations. Ensuring that pathways are clearly marked and easily traversable may support effective staging and movement throughout the area. This approach could assist emergency personnel in quickly and safely reaching key locations such as the main building, roof system, and patio area, thereby potentially improving response times and operational success."
  },
  "wildfire": {
    "nadir_url": "",
    "conditions": [
      {
        "label": "Scattered Trees",
        "lat": 44.0775019,
        "lng": -121.3380191
      },
      {
        "label": "Vegetation Adjacent to Structure",
        "lat": 44.0773777,
        "lng": -121.3378475
      },
      {
        "label": "Tree Cluster",
        "lat": 44.0775019,
        "lng": -121.3376758
      },
      {
        "label": "Open Terrain",
        "lat": 44.0771294,
        "lng": -121.3379333
      },
      {
        "label": "Defensible Space",
        "lat": 44.0773777,
        "lng": -121.3379333
      },
      {
        "label": "Scattered Shrubs",
        "lat": 44.0772535,
        "lng": -121.338105
      },
      {
        "label": "Vegetated Perimeter",
        "lat": 44.0773777,
        "lng": -121.3382766
      },
      {
        "label": "Fuel Continuity",
        "lat": 44.0772535,
        "lng": -121.3379333
      }
    ],
    "recommendations": "Enhancing defensible space around the property could be achieved by increasing separation between vegetation and structural components and reducing vegetation continuity near critical areas. Thinning or selectively removing scattered shrubs and trees, especially those in clusters, may help reduce combustible fuel concentrations and support wildfire management efforts. Maintaining open terrain can serve as a valuable buffer, so efforts should focus on preserving these areas while ensuring they remain clear and accessible. Managing the vegetated perimeter by ensuring regular maintenance and reducing dense vegetation near structures can help minimize potential fire spread. By focusing on fuel continuity reduction and managing vegetation immediately adjacent to the structure, the property could improve its capacity to withstand wildfire exposure while supporting firefighter access and suppression efforts. Overall, these actions can contribute to better property preparedness and long-term wildfire resilience."
  },
  "lat": 44.0773777,
  "lng": -121.3379333
}