{
  "name": "COLLVER RES (LETHA)",
  "address": "20134 GLEN VISTA ROAD, BEND, OR 97703",
  "hoa": "",
  "nadir_raw": "https://maps.googleapis.com/maps/api/staticmap?center=44.1008927,-121.3166284&zoom=19&size=640x640&maptype=satellite&key=AIzaSyBodCoZXT1xsVY_erI_cT1XGoWeBm6bx_I",
  "fr": {
    "nadir_url": "",
    "elements": [
      {
        "label": "Main Building",
        "lat": 44.1008927,
        "lng": -121.3166284
      },
      {
        "label": "Internal Drive Aisle",
        "lat": 44.1011409,
        "lng": -121.3164567
      },
      {
        "label": "Open Green Space",
        "lat": 44.1010789,
        "lng": -121.3168001
      }
    ],
    "considerations": [
      {
        "label": "Dense Vegetation",
        "lat": 44.1009548,
        "lng": -121.3165426
      }
    ],
    "recommendations": "Improving emergency responder access could be achieved by ensuring clear and unobstructed access routes to all structures, particularly given the limited side access and presence of multiple structures. Maintaining clear drive aisles and minimizing dense vegetation along these pathways may enhance responder movement and visibility. Strategically managing vegetation in the landscaped area and open green space could further support efficient operations by preventing any impediments to responder navigation. Designating clear signage for each structure with visible route indicators at decision points along the access routes could facilitate quicker navigation and effective staging during emergency operations. This approach may assist emergency responders in efficiently maneuvering around the property, ensuring timely and effective response efforts."
  },
  "wildfire": {
    "nadir_url": "",
    "conditions": [
      {
        "label": "Tree Cluster",
        "lat": 44.1006445,
        "lng": -121.3167142
      },
      {
        "label": "Vegetation Adjacent to Structure",
        "lat": 44.1008927,
        "lng": -121.3166284
      },
      {
        "label": "Vegetated Perimeter",
        "lat": 44.1013271,
        "lng": -121.3165426
      },
      {
        "label": "Limited Defensible Space",
        "lat": 44.1009548,
        "lng": -121.3166284
      },
      {
        "label": "Vegetation Adjacent to Access Route",
        "lat": 44.1011409,
        "lng": -121.3164567
      },
      {
        "label": "Vegetated Access Route",
        "lat": 44.101203,
        "lng": -121.317315
      }
    ],
    "recommendations": "Enhancing defensible space and reducing fuel continuity around the property could be achieved by increasing the separation between vegetation and structures, particularly where vegetation is adjacent to the building. Thinning out dense tree canopies and breaking up tree clusters may reduce the likelihood of fire spread through crown fuels, while managing vegetation along the access route could support firefighter access and egress. Modifying the vegetated perimeter and maintaining clear side and access routes can improve access for fire suppression and emergency response efforts. Prioritizing vegetation management around the structure and along the access route would promote long-term wildfire resilience, while creating open space buffers around the residence could further reduce potential exposure to wildfire."
  },
  "lat": 44.1008927,
  "lng": -121.3166284
}