{
  "name": "AVION WATER RESERVOIR #2",
  "address": "60395 CHINA HAT ROAD, BEND, OR 97702",
  "hoa": "",
  "nadir_raw": "https://maps.googleapis.com/maps/api/staticmap?center=43.9917379,-121.3076785&zoom=19&size=640x640&maptype=satellite&key=AIzaSyBodCoZXT1xsVY_erI_cT1XGoWeBm6bx_I",
  "fr": {
    "nadir_url": "",
    "elements": [
      {
        "label": "Main Building",
        "lat": 43.9917379,
        "lng": -121.3076785
      },
      {
        "label": "Vehicle Parking Area",
        "lat": 43.9913027,
        "lng": -121.3080218
      },
      {
        "label": "Landscaped Area",
        "lat": 43.9921109,
        "lng": -121.3075068
      },
      {
        "label": "Access Road",
        "lat": 43.9917379,
        "lng": -121.3070777
      },
      {
        "label": "Perimeter Fencing",
        "lat": 43.9917379,
        "lng": -121.3081935
      }
    ],
    "considerations": [
      {
        "label": "Multiple Access Points",
        "lat": 43.9917379,
        "lng": -121.3070777
      },
      {
        "label": "Dense Vegetation",
        "lat": 43.9921731,
        "lng": -121.3078502
      }
    ],
    "recommendations": "Enhancing emergency response effectiveness for this property could involve reinforcing the clarity and accessibility of existing access points by ensuring they are well-marked and easily identifiable from the main building and vehicle parking area. Trimming back dense vegetation near these access points as well as along the access road may enhance visibility and allow for smoother navigation for emergency vehicles. Additionally, if feasible, exploring options to establish or clearly mark alternate routes around the perimeter fencing could facilitate better movement and staging for responders, especially given the limited access to the rear of the property. Ensuring that the landscaped areas do not obstruct movement pathways or sightlines could further support efficient and effective emergency operations."
  },
  "wildfire": {
    "nadir_url": "",
    "conditions": [
      {
        "label": "Vegetated Perimeter",
        "lat": 43.9921109,
        "lng": -121.3083651
      },
      {
        "label": "Scattered Trees",
        "lat": 43.9922352,
        "lng": -121.3075068
      },
      {
        "label": "Vegetation Adjacent to Structure",
        "lat": 43.9913649,
        "lng": -121.3080218
      },
      {
        "label": "Vegetation Adjacent to Structure",
        "lat": 43.9914892,
        "lng": -121.3073352
      },
      {
        "label": "Limited Defensible Space",
        "lat": 43.9917379,
        "lng": -121.3076785
      }
    ],
    "recommendations": "Enhancing the defensible space around the property may be achieved by maintaining adequate separation between the vegetation and structures, particularly where vegetation is adjacent to structures. Prudent thinning of scattered trees and ensuring that vegetation is not concentrated near improvements could reduce fuel continuity and potential fire exposure. Expanding the existing defensible space, especially in areas currently limited, may support overall property preparedness and decrease the likelihood of fire spread towards the residence. Preserving and managing the open terrain around the property could serve as a buffer that supports suppression efforts and long-term wildfire resilience. Addressing these considerations can contribute to creating a more robust defensible space, ultimately enhancing firefighter access and improving the effectiveness of suppression operations."
  },
  "lat": 43.9917379,
  "lng": -121.3076785
}