{
  "name": "DESCHUTES TITLE",
  "address": "397 SW UPPER TERRACE DR, BEND, OR 97702",
  "hoa": "",
  "nadir_raw": "https://maps.googleapis.com/maps/api/staticmap?center=44.046472,-121.3116308&zoom=19&size=640x640&maptype=satellite&key=AIzaSyBodCoZXT1xsVY_erI_cT1XGoWeBm6bx_I",
  "fr": {
    "nadir_url": "",
    "elements": [
      {
        "label": "Main Building",
        "lat": 44.046472,
        "lng": -121.3116136
      },
      {
        "label": "Vehicle Parking Area",
        "lat": 44.0466583,
        "lng": -121.3116737
      },
      {
        "label": "Pedestrian Walkways",
        "lat": 44.0463478,
        "lng": -121.311545
      },
      {
        "label": "Landscaped Area",
        "lat": 44.0463788,
        "lng": -121.3115879
      }
    ],
    "considerations": [
      {
        "label": "Multiple Access Points",
        "lat": 44.0463478,
        "lng": -121.311545
      }
    ],
    "recommendations": "Enhancing the accessibility and visibility of access points on the property could significantly improve emergency response operations. Installing clear signage and ensuring pathways to these access points remain unobstructed may assist emergency personnel in quickly reaching the main building. Additionally, maintaining pedestrian walkways and parking areas free of clutter would support efficient movement and maneuverability for responders and their equipment. Adjusting landscaping near designated side access routes to minimize obstructions could further aid responder navigation and visibility. By implementing these recommendations, emergency response efforts may be more effective and timely, with responders able to locate and access critical areas swiftly."
  },
  "wildfire": {
    "nadir_url": "",
    "conditions": [
      {
        "label": "Vegetation Adjacent to Structure",
        "lat": 44.0463788,
        "lng": -121.311545
      },
      {
        "label": "Limited Defensible Space",
        "lat": 44.0464099,
        "lng": -121.3115879
      },
      {
        "label": "Vegetated Perimeter",
        "lat": 44.046472,
        "lng": -121.3119741
      },
      {
        "label": "Vegetation Adjacent to Structure",
        "lat": 44.0465341,
        "lng": -121.3114162
      }
    ],
    "recommendations": "Improving defensible space could be achieved by increasing the separation between vegetation and structures, particularly where vegetation is adjacent to the home. Removing or thinning the vegetation near the structure would help to reduce potential exposure and may decrease fuel continuity. In addition, managing the vegetated perimeter surrounding the property to create a wider buffer zone could enhance defensible space and contribute to long-term wildfire resilience. Consider increasing the clearance along the access route to support firefighter access and facilitate suppression efforts. Ensuring that vegetation along the driveway and other access areas is maintained can further enhance property preparedness, improving the avenue for emergency responders. Implementing regular vegetation management practices and expanding open spaces around the property could further strengthen the property's wildfire mitigation strategy."
  },
  "lat": 44.046472,
  "lng": -121.3116308
}