{
  "name": "CENTRAL OREGON SPINE AND SPORTS",
  "address": "2115 NE WYATT COURT STE 101, BEND, OR 97701",
  "hoa": "",
  "nadir_raw": "https://maps.googleapis.com/maps/api/staticmap?center=44.0719814,-121.2653953&zoom=19&size=640x640&maptype=satellite&key=AIzaSyBodCoZXT1xsVY_erI_cT1XGoWeBm6bx_I",
  "fr": {
    "nadir_url": "",
    "elements": [
      {
        "label": "Main Building",
        "lat": 44.0719814,
        "lng": -121.2653953
      },
      {
        "label": "Landscaped Area",
        "lat": 44.0721366,
        "lng": -121.2652666
      },
      {
        "label": "Vehicle Parking Area",
        "lat": 44.0717952,
        "lng": -121.265567
      },
      {
        "label": "Pedestrian Walkways",
        "lat": 44.0718572,
        "lng": -121.2653953
      },
      {
        "label": "Perimeter Fencing",
        "lat": 44.0721366,
        "lng": -121.2656099
      }
    ],
    "considerations": [
      {
        "label": "Single Access Point",
        "lat": 44.0717331,
        "lng": -121.2653953
      }
    ],
    "recommendations": "Enhancing emergency response effectiveness on the property could be achieved by addressing the single access point and dense vegetation. Establishing multiple clearly marked access points may facilitate quicker responder entry and exit. Maintaining wide, unobstructed pedestrian walkways could support safe and efficient movements for emergency personnel. Managing the dense vegetation, particularly near the main building and along travel corridors, would improve visibility and access, enabling responders to navigate the property more effectively. Additionally, ensuring that the vehicle parking area remains clear of obstacles and is well-defined could support staging and maneuverability for emergency vehicles. Taking these steps may enhance operational efficiency and ensure more effective emergency response on the property."
  },
  "wildfire": {
    "nadir_url": "",
    "conditions": [
      {
        "label": "Scattered Trees",
        "lat": 44.0720435,
        "lng": -121.2653095
      },
      {
        "label": "Vegetation Adjacent to Structure",
        "lat": 44.0719814,
        "lng": -121.2653524
      },
      {
        "label": "Defensible Space",
        "lat": 44.0719193,
        "lng": -121.2653953
      },
      {
        "label": "Scattered Shrubs",
        "lat": 44.0718572,
        "lng": -121.2654811
      }
    ],
    "recommendations": "Enhancing defensible space around the property could be achieved by increasing the separation between scattered trees and nearby structures, which may decrease the potential for fire spread. Managing vegetation directly adjacent to the structure is crucial; consider reducing or selectively thinning the vegetation to limit direct fire exposure. Maintenance of the open terrain surrounding the property may help preserve this natural buffer, potentially supporting long-term resilience. By reducing the concentrations of scattered shrubs, particularly along the vegetated perimeter, fuel continuity may be minimized, improving the property's preparedness. Ensuring that access routes remain clear and free from potential obstructions will aid firefighter access and support suppression efforts if needed. Overall, a proactive approach to vegetation management will strengthen defensible space and reduce potential wildfire exposure."
  },
  "lat": 44.0719814,
  "lng": -121.2653953
}