{
  "name": "Highlands 15",
  "address": "18770 Macalpine Loop, Bend, OR 97702",
  "hoa": "highlands",
  "nadir_raw": "https://maps.googleapis.com/maps/api/staticmap?center=44.0394331,-121.3784851&zoom=18&size=640x640&maptype=satellite&key=AIzaSyBodCoZXT1xsVY_erI_cT1XGoWeBm6bx_I",
  "fr": {
    "nadir_url": "https://maps.googleapis.com/maps/api/staticmap?center=44.0394331,-121.3784851&zoom=18&size=640x640&maptype=satellite&markers=color:green|label:1|44.0394331,-121.3784851&markers=color:green|label:2|44.0395573,-121.3783134&markers=color:green|label:3|44.0391846,-121.3788284&markers=color:green|label:4|44.0396816,-121.3777985&markers=color:green|label:5|44.0398058,-121.3784851&markers=color:red|label:A|44.0396816,-121.3776268&markers=color:red|label:B|44.0391846,-121.3781418&key=AIzaSyBodCoZXT1xsVY_erI_cT1XGoWeBm6bx_I",
    "elements": [
      {
        "label": "Main Building",
        "lat": 44.0394331,
        "lng": -121.3784851
      },
      {
        "label": "Landscaped Area",
        "lat": 44.0391846,
        "lng": -121.3783134
      },
      {
        "label": "Pedestrian Walkways",
        "lat": 44.0393586,
        "lng": -121.3785881
      },
      {
        "label": "Pool Area",
        "lat": 44.0395325,
        "lng": -121.3785194
      },
      {
        "label": "Perimeter Fencing",
        "lat": 44.0390604,
        "lng": -121.3783478
      }
    ],
    "considerations": [
      {
        "label": "Single Access Point",
        "lat": 44.0385635,
        "lng": -121.3781418
      },
      {
        "label": "Limited Side Access",
        "lat": 44.0394331,
        "lng": -121.3788284
      },
      {
        "label": "Dense Vegetation",
        "lat": 44.0386877,
        "lng": -121.3783134
      }
    ],
    "recommendations": "Enhancing emergency response effectiveness for the property could be achieved by improving access and egress routes. Facilitating additional or alternative access points may provide emergency responders with more options for positioning and staging. Considering the removal or trimming of dense vegetation near the existing access pathways and around the perimeter may enhance visibility and movement for emergency personnel. Ensuring pedestrian walkways remain clear and unobstructed would support unobstructed navigation and facilitate responder movement throughout the property. Additionally, maintaining a clear area around the main building and pool would allow for more efficient and effective emergency operations."
  },
  "wildfire": {
    "nadir_url": "https://maps.googleapis.com/maps/api/staticmap?center=44.0394331,-121.3784851&zoom=18&size=640x640&maptype=satellite&markers=color:orange|label:1|44.0394579,-121.3784164&markers=color:orange|label:2|44.0393834,-121.3782104&markers=color:orange|label:3|44.0396816,-121.3786568&markers=color:orange|label:4|44.0388119,-121.3781418&markers=color:orange|label:5|44.0389362,-121.3791717&markers=color:orange|label:6|44.0395573,-121.3790001&markers=color:orange|label:7|44.0399300,-121.3779701&markers=color:orange|label:8|44.0394331,-121.3784851&key=AIzaSyBodCoZXT1xsVY_erI_cT1XGoWeBm6bx_I",
    "conditions": [
      {
        "label": "Scattered Trees",
        "lat": 44.03993,
        "lng": -121.3791717
      },
      {
        "label": "Scattered Shrubs",
        "lat": 44.0396816,
        "lng": -121.3781418
      },
      {
        "label": "Vegetated Perimeter",
        "lat": 44.0401785,
        "lng": -121.3788284
      },
      {
        "label": "Open Green Space",
        "lat": 44.0394331,
        "lng": -121.3784851
      },
      {
        "label": "Limited Defensible Space",
        "lat": 44.0391846,
        "lng": -121.3781418
      },
      {
        "label": "Vegetation Adjacent to Structure",
        "lat": 44.0395573,
        "lng": -121.3783134
      }
    ],
    "recommendations": "Enhancing defensible space around the property could be achieved by managing the vegetation adjacent to the structure and along the access route, which would help in reducing fuel continuity and improving firefighter access. Maintaining a clear zone between the scattered trees and shrubs, and the structure may reduce potential fire exposure. Expanding the amount of open green space and maintaining it in a managed state can help in reducing the continuity of combustible vegetation, potentially slowing the movement of fire toward the property. Keeping the single access route clear of vegetation can support firefighter access and suppression operations, while a periodic assessment of the vegetated perimeter may identify opportunities to increase separation between fuels and create buffer areas for improved wildfire resilience. These efforts collectively may bolster long-term property preparedness and support mitigation of wildfire exposure."
  },
  "lat": 44.0394331,
  "lng": -121.3784851
}