{
  "name": "Highlands 15",
  "address": "18770 Macalpine Loop, Bend, OR 97702",
  "hoa": "highlands",
  "nadir_raw": "https://maps.googleapis.com/maps/api/staticmap?center=44.0394331,-121.3784851&zoom=18&size=640x640&maptype=satellite&key=AIzaSyBodCoZXT1xsVY_erI_cT1XGoWeBm6bx_I",
  "fr": {
    "nadir_url": "https://maps.googleapis.com/maps/api/staticmap?center=44.0394331,-121.3784851&zoom=18&size=640x640&maptype=satellite&markers=color:green|label:1|44.0394331,-121.3784851&markers=color:green|label:2|44.0395573,-121.3783134&markers=color:green|label:3|44.0391846,-121.3788284&markers=color:green|label:4|44.0396816,-121.3777985&markers=color:green|label:5|44.0398058,-121.3784851&markers=color:red|label:A|44.0396816,-121.3776268&markers=color:red|label:B|44.0391846,-121.3781418&key=AIzaSyBodCoZXT1xsVY_erI_cT1XGoWeBm6bx_I",
    "elements": [
      {
        "label": "Main Building",
        "lat": 44.0394331,
        "lng": -121.3784851
      },
      {
        "label": "Landscaped Area",
        "lat": 44.0391846,
        "lng": -121.3786568
      },
      {
        "label": "Perimeter Fencing",
        "lat": 44.03993,
        "lng": -121.3783134
      },
      {
        "label": "Front Driveway",
        "lat": 44.0388119,
        "lng": -121.3779701
      },
      {
        "label": "Detached Structure",
        "lat": 44.0393089,
        "lng": -121.3788284
      }
    ],
    "considerations": [
      {
        "label": "Limited Visibility",
        "lat": 44.0395573,
        "lng": -121.3783134
      },
      {
        "label": "Dense Vegetation",
        "lat": 44.0389362,
        "lng": -121.3788284
      }
    ],
    "recommendations": "To enhance responder effectiveness, improving visibility through strategic trimming of dense vegetation could facilitate clearer sightlines for emergency personnel. Maintaining a clear and open front driveway may assist in providing unrestricted access to the main building and detached structure, ensuring that responders can quickly reach critical areas. Considering the presence of perimeter fencing, it would be beneficial to have designated and clearly identifiable access points, possibly marked with reflective signage, to ensure rapid identification and entry for first responders. Addressing the single access point by creating an additional entry route, if feasible, could support more efficient movement and potentially reduce congestion during emergency operations."
  },
  "wildfire": {
    "nadir_url": "https://maps.googleapis.com/maps/api/staticmap?center=44.0394331,-121.3784851&zoom=18&size=640x640&maptype=satellite&markers=color:orange|label:1|44.0394579,-121.3784164&markers=color:orange|label:2|44.0393834,-121.3782104&markers=color:orange|label:3|44.0396816,-121.3786568&markers=color:orange|label:4|44.0388119,-121.3781418&markers=color:orange|label:5|44.0389362,-121.3791717&markers=color:orange|label:6|44.0395573,-121.3790001&markers=color:orange|label:7|44.0399300,-121.3779701&markers=color:orange|label:8|44.0394331,-121.3784851&key=AIzaSyBodCoZXT1xsVY_erI_cT1XGoWeBm6bx_I",
    "conditions": [
      {
        "label": "Scattered Trees",
        "lat": 44.0396816,
        "lng": -121.3795151
      },
      {
        "label": "Scattered Shrubs",
        "lat": 44.0391846,
        "lng": -121.3791717
      },
      {
        "label": "Vegetated Perimeter",
        "lat": 44.0401785,
        "lng": -121.3784851
      },
      {
        "label": "Open Terrain",
        "lat": 44.0386877,
        "lng": -121.3781418
      },
      {
        "label": "Defensible Space",
        "lat": 44.0394331,
        "lng": -121.3784851
      },
      {
        "label": "Vegetation Adjacent to Structure",
        "lat": 44.0395573,
        "lng": -121.3783134
      },
      {
        "label": "Open Green Space",
        "lat": 44.0396816,
        "lng": -121.3781418
      },
      {
        "label": "Tree Cluster",
        "lat": 44.03993,
        "lng": -121.3786568
      }
    ],
    "recommendations": "Enhancing vegetation management around the property could strengthen defensible space and improve wildfire preparedness. Increasing the separation between scattered trees and the structure, as well as managing the shrubs adjacent to the residence, may reduce fuel continuity and potential fire spread towards the building. Preserving open terrain and the existing green space is important, as these areas can act as natural fuel breaks and further support defensible space. Attention should be given to maintaining a clear and accessible perimeter, which could facilitate firefighter access and suppression efforts. Strategic pruning or removal of specific vegetation within the tree cluster may also help diminish concentrated fuel load, supporting long-term vegetation management and reducing exposure to wildfire."
  },
  "lat": 44.0394331,
  "lng": -121.3784851
}