{
  "name": "CHURCH OF THE NAZARENE",
  "address": "1270 NE 27TH ST, BEND, OR 97701",
  "hoa": "",
  "nadir_raw": "https://maps.googleapis.com/maps/api/staticmap?center=44.0626271,-121.2629774&zoom=19&size=640x640&maptype=satellite&key=AIzaSyBodCoZXT1xsVY_erI_cT1XGoWeBm6bx_I",
  "fr": {
    "nadir_url": "",
    "elements": [
      {
        "label": "Main Building",
        "lat": 44.0626271,
        "lng": -121.2629774
      },
      {
        "label": "Front Driveway",
        "lat": 44.0627513,
        "lng": -121.2634924
      },
      {
        "label": "Vehicle Parking Area",
        "lat": 44.0625029,
        "lng": -121.2635782
      },
      {
        "label": "Landscaped Area",
        "lat": 44.0629376,
        "lng": -121.2633207
      },
      {
        "label": "Roof System",
        "lat": 44.0626271,
        "lng": -121.2629774
      },
      {
        "label": "Pedestrian Walkways",
        "lat": 44.0627513,
        "lng": -121.2632349
      },
      {
        "label": "Perimeter Fencing",
        "lat": 44.0631859,
        "lng": -121.2631662
      }
    ],
    "considerations": [
      {
        "label": "Multiple Structures",
        "lat": 44.0626271,
        "lng": -121.2629774
      }
    ],
    "recommendations": "Enhancing emergency response effectiveness on the property could be achieved by improving access and mobility for responders. Establishing an additional access point, if space and layout permit, may enhance the flow of responder vehicles and personnel onto the property, reducing potential delays in emergency situations. Marking and maintaining open and clearly defined pedestrian walkways and driveways can facilitate rapid movement and staging of personnel and equipment, especially in conjunction with coordination between multiple structures present on the site. Ensuring visible signage and distinct pathways leading to and between structures may support navigation efficiency, allowing responders to quickly identify and access necessary zones. Additionally, managing the landscaped area to maintain clear sightlines could aid in increasing visibility and operational opportunities for first responders."
  },
  "wildfire": {
    "nadir_url": "",
    "conditions": [
      {
        "label": "Vegetation Adjacent to Structure",
        "lat": 44.0627513,
        "lng": -121.2630117
      },
      {
        "label": "Scattered Trees",
        "lat": 44.0628134,
        "lng": -121.2634924
      },
      {
        "label": "Scattered Shrubs",
        "lat": 44.0628755,
        "lng": -121.2628916
      },
      {
        "label": "Open Terrain",
        "lat": 44.0630617,
        "lng": -121.2632349
      }
    ],
    "recommendations": "Enhancing the defensible space around the property through increased separation of vegetation from the structures could significantly improve preparedness. Consider reducing the density of trees and shrubs within close proximity to the building to minimize fuel continuity and to help prevent potential fire spread towards the structure. Maintaining open terrain and limiting continuous vegetative cover between the perimeter of the property and the structures can further support defensible space efforts. Ensuring that vegetation on the property perimeter is selectively managed may aid in slowing down fire progression toward vital structures. Preservation of these open spaces and the strategic reduction of plant concentrations near the home would not only bolster resilience against wildfires but also aid in maintaining accessibility for firefighters, thus supporting suppression activities. Regular assessment and upkeep of these areas can enhance long-term property resilience to wildfires."
  },
  "lat": 44.0626271,
  "lng": -121.2629774
}