{
  "name": "CHURCH OF THE NAZARENE",
  "address": "1270 NE 27TH ST, BEND, OR 97701",
  "hoa": "",
  "nadir_raw": "https://maps.googleapis.com/maps/api/staticmap?center=44.0626271,-121.2629774&zoom=19&size=640x640&maptype=satellite&key=AIzaSyBodCoZXT1xsVY_erI_cT1XGoWeBm6bx_I",
  "fr": {
    "nadir_url": "",
    "elements": [
      {
        "label": "Main Building",
        "lat": 44.0626271,
        "lng": -121.2629774
      },
      {
        "label": "Roof System",
        "lat": 44.0626271,
        "lng": -121.2629774
      },
      {
        "label": "Vehicle Parking Area",
        "lat": 44.0626271,
        "lng": -121.2624624
      },
      {
        "label": "Landscaped Area",
        "lat": 44.0629376,
        "lng": -121.2633207
      },
      {
        "label": "Pedestrian Walkways",
        "lat": 44.0627513,
        "lng": -121.2632349
      },
      {
        "label": "Front Driveway",
        "lat": 44.0627513,
        "lng": -121.2634924
      },
      {
        "label": "Perimeter Fencing",
        "lat": 44.0631238,
        "lng": -121.2629774
      }
    ],
    "considerations": [
      {
        "label": "Multiple Structures",
        "lat": 44.0626271,
        "lng": -121.2629774
      }
    ],
    "recommendations": "Enhancing the main building's responder access and operational efficiency could be achieved by ensuring the single access point is clearly marked and unobstructed. Designating clear routes within vehicle parking areas and maintaining pedestrian walkways in a visible and accessible condition may enhance movement and navigation for responders. Strategically managing landscaped areas to avoid blocking sightlines and access pathways can support prompt responder efficiency. Addressing limited rear access by considering potential alternative routes or creating space for maneuverability at the rear could assist in operational effectiveness. Clearly marking entry and exit points along perimeter fencing, if present, may further aid navigation and streamline operations during an emergency."
  },
  "wildfire": {
    "nadir_url": "",
    "conditions": [
      {
        "label": "Vegetation Adjacent to Structure",
        "lat": 44.062565,
        "lng": -121.2630632
      },
      {
        "label": "Vegetated Perimeter",
        "lat": 44.0622545,
        "lng": -121.2633207
      },
      {
        "label": "Open Terrain",
        "lat": 44.0631238,
        "lng": -121.2622908
      },
      {
        "label": "Open Fuel Break",
        "lat": 44.0626271,
        "lng": -121.2629774
      }
    ],
    "recommendations": "Enhancing defensible space by increasing the distance between the structure and adjacent vegetation may reduce potential fire exposure to the building. Consistent vegetation management across the property, particularly along the vegetated perimeter, can help diminish continuous fuel sources and restrict fire spread potential. Preserving the open terrain and existing fuel break will further limit the capacity for fire to approach the structure by maintaining effective barriers. Regular maintenance of these open areas will ensure they continue to serve as effective firebreaks. Managing vegetation strategically around the structure can support both wildfire resilience and suppression efforts by ensuring that firefighters have clearer access and fewer obstacles during potential fire events. Maintaining these practices over time is crucial for long-term property preparedness and may bolster the landscape's resistance to wildfire impact."
  },
  "lat": 44.0626271,
  "lng": -121.2629774
}