{
  "name": "CHURCH OF THE NAZARENE",
  "address": "1270 NE 27TH ST, BEND, OR 97701",
  "hoa": "",
  "nadir_raw": "https://maps.googleapis.com/maps/api/staticmap?center=44.0626271,-121.2629774&zoom=19&size=640x640&maptype=satellite&key=AIzaSyBodCoZXT1xsVY_erI_cT1XGoWeBm6bx_I",
  "fr": {
    "nadir_url": "",
    "elements": [
      {
        "label": "Main Building",
        "lat": 44.0626271,
        "lng": -121.2629774
      },
      {
        "label": "Roof System",
        "lat": 44.0626519,
        "lng": -121.2629431
      },
      {
        "label": "Front Driveway",
        "lat": 44.0625029,
        "lng": -121.2634924
      },
      {
        "label": "Vehicle Parking Area",
        "lat": 44.0623787,
        "lng": -121.2633207
      },
      {
        "label": "Landscaped Area",
        "lat": 44.062565,
        "lng": -121.2634066
      }
    ],
    "considerations": [
      {
        "label": "Single Access Point",
        "lat": 44.0623166,
        "lng": -121.2635782
      },
      {
        "label": "Fenced Sections",
        "lat": 44.0626271,
        "lng": -121.2624624
      }
    ],
    "recommendations": "Enhancing emergency response effectiveness at the property may benefit from maintaining the driveway and vehicle parking area clear of obstructions, which could facilitate unhindered responder access and movement. The single access point might be complemented with clear signage or markers to assist in quickly identifying entry areas for responders. Additionally, ensuring that fenced sections are equipped with accessible gates that allow rapid ingress and egress can be advantageous for emergency operations. Regularly inspecting and managing landscaped areas, especially those bordering access routes, could further support visibility and ease of navigation for emergency personnel. These considerations collectively may streamline responder staging and operational efficiency throughout the property."
  },
  "wildfire": {
    "nadir_url": "",
    "conditions": [
      {
        "label": "Vegetation Adjacent to Structure",
        "lat": 44.0626271,
        "lng": -121.2631491
      },
      {
        "label": "Vegetated Perimeter",
        "lat": 44.0630617,
        "lng": -121.2634066
      },
      {
        "label": "Scattered Trees",
        "lat": 44.0630617,
        "lng": -121.2625482
      },
      {
        "label": "Open Terrain",
        "lat": 44.0626271,
        "lng": -121.2629774
      },
      {
        "label": "Limited Defensible Space",
        "lat": 44.0626892,
        "lng": -121.2630632
      }
    ],
    "recommendations": "Increasing the separation between the vegetation and the structure, by trimming back or strategically removing plants situated against the building, can enhance defensible space and decrease the potential for fire to impact the structure directly. Managing vegetation along the property's perimeter by selectively reducing dense plant concentrations while maintaining scattered trees can reduce fuel continuity and slow the potential spread of fire towards the structure. Open terrain presents an opportunity to maintain additional defensible space, serving as a buffer that could inhibit the reach of a fire. Bolstering these areas with regularly irrigated lawns or other non-flammable landscaping materials may further mitigate structure exposure. Strategic vegetation management in these zones will support long-term wildfire resilience and property preparedness, while ensuring that access routes remain clear would facilitate potential firefighter access and suppression activities."
  },
  "lat": 44.0626271,
  "lng": -121.2629774
}