{
  "name": "BECKER RES (TIM & KIM)",
  "address": "65930 MARIPOSA DR, BEND, OR 97701",
  "hoa": "",
  "nadir_raw": "https://maps.googleapis.com/maps/api/staticmap?center=44.194852,-121.3699239&zoom=19&size=640x640&maptype=satellite&key=AIzaSyBodCoZXT1xsVY_erI_cT1XGoWeBm6bx_I",
  "fr": {
    "nadir_url": "",
    "elements": [
      {
        "label": "Main Building",
        "lat": 44.194852,
        "lng": -121.3699239
      },
      {
        "label": "Front Driveway",
        "lat": 44.1946971,
        "lng": -121.3696235
      },
      {
        "label": "Landscaped Area",
        "lat": 44.194914,
        "lng": -121.3701385
      },
      {
        "label": "Pedestrian Walkways",
        "lat": 44.19479,
        "lng": -121.3700956
      }
    ],
    "considerations": [
      {
        "label": "Single Access Point",
        "lat": 44.1946971,
        "lng": -121.3696235
      },
      {
        "label": "Vegetation Overhang",
        "lat": 44.194883,
        "lng": -121.3701814
      },
      {
        "label": "Limited Rear Access",
        "lat": 44.1949759,
        "lng": -121.3698381
      }
    ],
    "recommendations": "Ensuring that the single access point to the property is clearly marked and free from any obstructions could improve responder access and their ability to quickly reach the main building. Trimming back vegetation overhangs that encroach on driveways or pedestrian walkways may enhance the visibility and ease of movement for first responders navigating the property. Additionally, exploring ways to provide more point-of-entry options or improve paths leading to the rear sections of the property could facilitate more efficient responder movement and staging during an emergency. Maintaining open and well-defined pedestrian walkways may support effective navigation, allowing emergency personnel to carry out operations more effectively across different areas of the property, including the landscaped and open green spaces."
  },
  "wildfire": {
    "nadir_url": "",
    "conditions": [
      {
        "label": "Scattered Trees",
        "lat": 44.1949759,
        "lng": -121.3700956
      },
      {
        "label": "Open Terrain",
        "lat": 44.1950379,
        "lng": -121.3697522
      },
      {
        "label": "Defensible Space",
        "lat": 44.194852,
        "lng": -121.3699239
      },
      {
        "label": "Tree Cluster",
        "lat": 44.1947281,
        "lng": -121.3700956
      },
      {
        "label": "Vegetation Adjacent to Structure",
        "lat": 44.19479,
        "lng": -121.3698381
      },
      {
        "label": "Vegetated Access Route",
        "lat": 44.1946661,
        "lng": -121.3700097
      },
      {
        "label": "Open Terrain",
        "lat": 44.19479,
        "lng": -121.3696664
      },
      {
        "label": "Scattered Shrubs",
        "lat": 44.1949759,
        "lng": -121.3697952
      },
      {
        "label": "Dense Tree Canopy",
        "lat": 44.1950069,
        "lng": -121.3700526
      }
    ],
    "recommendations": "To enhance property preparedness and reduce wildfire exposure, increasing separation between vegetation and structures may be beneficial, particularly addressing the vegetation immediately adjacent to structures and along access routes. Ensuring that these areas are regularly managed would support firefighter access and suppress fire spread. Thinning tree clusters and scattered shrubs, especially where they contribute to dense canopies, could reduce fuel continuity and improve defensible space. Preserving open terrain and maintaining existing defensible space around the property should continue to be prioritized, as these open areas can serve as effective fuel breaks. Long-term resilience can be further supported by consistent vegetation management along the vegetated perimeter, thereby minimizing the risk of fire encroachment from nearby plant concentrations."
  },
  "lat": 44.194852,
  "lng": -121.3699239
}