{
  "name": "BECKER RES (TIM & KIM)",
  "address": "65930 MARIPOSA DR, BEND, OR 97701",
  "hoa": "",
  "nadir_raw": "https://maps.googleapis.com/maps/api/staticmap?center=44.194852,-121.3699239&zoom=19&size=640x640&maptype=satellite&key=AIzaSyBodCoZXT1xsVY_erI_cT1XGoWeBm6bx_I",
  "fr": {
    "nadir_url": "",
    "elements": [
      {
        "label": "Main Building",
        "lat": 44.1948024,
        "lng": -121.3698209
      },
      {
        "label": "Front Driveway",
        "lat": 44.1944803,
        "lng": -121.3699239
      },
      {
        "label": "Landscaped Area",
        "lat": 44.1946042,
        "lng": -121.3697522
      },
      {
        "label": "Detached Structure",
        "lat": 44.194852,
        "lng": -121.3701642
      },
      {
        "label": "Open Green Space",
        "lat": 44.1943564,
        "lng": -121.3695806
      }
    ],
    "considerations": [
      {
        "label": "Single Access Point",
        "lat": 44.1942325,
        "lng": -121.3696836
      },
      {
        "label": "Dense Vegetation",
        "lat": 44.1946537,
        "lng": -121.3699926
      },
      {
        "label": "Limited Side Access",
        "lat": 44.1948024,
        "lng": -121.3695806
      },
      {
        "label": "None Visible",
        "lat": 44.194852,
        "lng": -121.3699239
      }
    ],
    "recommendations": "Enhancing emergency response to this property could be achieved by addressing the single access point and dense vegetation. Establishing secondary access points may facilitate improved responder access and egress, enhancing movement and operational flexibility during an emergency. Trimming or selectively reducing the dense vegetation could support improved responder visibility and ease of navigation throughout the property. Additionally, ensuring pathways around the main building and detached structure are clear and unobstructed would support more efficient emergency responder movement and staging. Providing delineated access routes through the landscaped area may also aid in quicker operational response times, particularly if the main driveway becomes congested or inaccessible during an emergency."
  },
  "wildfire": {
    "nadir_url": "",
    "conditions": [
      {
        "label": "Scattered Trees",
        "lat": 44.1946042,
        "lng": -121.3702672
      },
      {
        "label": "Open Terrain",
        "lat": 44.1941086,
        "lng": -121.3692373
      },
      {
        "label": "Defensible Space",
        "lat": 44.194852,
        "lng": -121.3699239
      },
      {
        "label": "Vegetation Adjacent to Structure",
        "lat": 44.1947529,
        "lng": -121.3697522
      },
      {
        "label": "Vegetated Perimeter",
        "lat": 44.1943564,
        "lng": -121.3706105
      },
      {
        "label": "Scattered Shrubs",
        "lat": 44.1942325,
        "lng": -121.3695806
      },
      {
        "label": "Vegetation Adjacent to Access Route",
        "lat": 44.1944803,
        "lng": -121.3700956
      },
      {
        "label": "Open Fuel Break",
        "lat": 44.1949759,
        "lng": -121.3699239
      }
    ],
    "recommendations": "Enhancing the existing defensible space by increasing separation between scattered trees and the structure could improve wildfire resilience. It may be beneficial to manage vegetation adjacent to the structure and access route to support firefighter access and reduce potential fire exposure to key infrastructure. Maintaining the open terrain and fuel break will ensure longer-term wildfire preparedness by preserving critical barriers to fire spread. Additionally, managing scattered shrubs and the vegetated perimeter can reduce fuel continuity, further enhancing defensible space. Continuing to manage these areas by maintaining clear separations, reducing vegetation concentrations around critical improvements, and preserving open fuel breaks will support suppression efforts and contribute to long-term property resilience."
  },
  "lat": 44.194852,
  "lng": -121.3699239
}