{
  "name": "DENT INSTRUMENTS",
  "address": "925 SW EMKAY, BEND, OR 97702",
  "hoa": "",
  "nadir_raw": "https://maps.googleapis.com/maps/api/staticmap?center=44.0449515,-121.3237189&zoom=19&size=640x640&maptype=satellite&key=AIzaSyBodCoZXT1xsVY_erI_cT1XGoWeBm6bx_I",
  "fr": {
    "nadir_url": "",
    "elements": [
      {
        "label": "Main Building",
        "lat": 44.0449515,
        "lng": -121.3237189
      },
      {
        "label": "Vehicle Parking Area",
        "lat": 44.0450757,
        "lng": -121.3235301
      },
      {
        "label": "Landscaped Area",
        "lat": 44.0447962,
        "lng": -121.323676
      },
      {
        "label": "Front Driveway",
        "lat": 44.0447031,
        "lng": -121.3237618
      },
      {
        "label": "Pedestrian Walkways",
        "lat": 44.0448894,
        "lng": -121.3235644
      }
    ],
    "considerations": [
      {
        "label": "Multiple Access Points",
        "lat": 44.0447341,
        "lng": -121.3236331
      },
      {
        "label": "Fenced Sections",
        "lat": 44.0448273,
        "lng": -121.3237361
      },
      {
        "label": "Open Terrain",
        "lat": 44.0447652,
        "lng": -121.3238906
      }
    ],
    "recommendations": "Improving emergency responder access and operational efficiency could be achieved by ensuring multiple access points are clearly marked and unobstructed. Evaluating the placement and design of the fenced sections to avoid limiting responder movement would support efficient navigation around the property. Maintaining clear pathways through pedestrian walkways could facilitate quick transitions between areas. Open terrain areas, if strategically utilized, may serve as effective staging zones for emergency operations. Additionally, ensuring that driveways and parking areas remain clutter-free with visible markings would assist in the navigation and maneuverability of emergency vehicles, thereby improving overall incident management on the premises."
  },
  "wildfire": {
    "nadir_url": "",
    "conditions": [
      {
        "label": "Vegetation Adjacent to Structure",
        "lat": 44.0448894,
        "lng": -121.3236159
      },
      {
        "label": "Scattered Trees",
        "lat": 44.0451378,
        "lng": -121.3238906
      },
      {
        "label": "Scattered Trees",
        "lat": 44.0451999,
        "lng": -121.3234614
      },
      {
        "label": "Vegetated Perimeter",
        "lat": 44.0451999,
        "lng": -121.3240622
      },
      {
        "label": "Limited Defensible Space",
        "lat": 44.0449204,
        "lng": -121.323676
      }
    ],
    "recommendations": "Improving defensible space around the structure could be achieved by increasing the separation between the structure and adjacent vegetation. Managing vegetation concentrations in these areas may help reduce fuel continuity. Regarding the scattered trees, maintaining clear space between tree canopies and pruning lower branches can further enhance defensible areas. The vegetated perimeter may benefit from focused management practices such as thinning or removal of excess vegetation to create buffers that limit fire spread. Creating or enhancing existing open space between these vegetated zones and the structure can also prove beneficial. Additionally, consistent upkeep in maintaining and expanding defensible space is crucial to support both firefighter access and suppression efforts, contributing to long-term wildfire resilience of the property."
  },
  "lat": 44.0449515,
  "lng": -121.3237189
}