{
  "name": "328-1050",
  "address": "520 Medical Center Dr Ste 201, Medford, OR 97504",
  "hoa": "asante",
  "nadir_raw": "https://maps.googleapis.com/maps/api/staticmap?center=42.3187286,-122.8325486&zoom=20&size=640x640&maptype=satellite&key=AIzaSyBodCoZXT1xsVY_erI_cT1XGoWeBm6bx_I",
  "fr": {
    "nadir_url": "https://maps.googleapis.com/maps/api/staticmap?center=42.3187286,-122.8325486&zoom=20&size=640x640&maptype=satellite&markers=color:green|label:1|42.3187286,-122.8325486&markers=color:green|label:2|42.3187605,-122.8325486&markers=color:green|label:3|42.3186967,-122.8325486&markers=color:green|label:4|42.3185689,-122.8325486&markers=color:green|label:5|42.3185689,-122.8327632&markers=color:green|label:6|42.3186328,-122.8325486&markers=color:green|label:7|42.3186008,-122.8324199&markers=color:red|label:A|42.3185689,-122.8325486&markers=color:red|label:B|42.3188883,-122.8325486&key=AIzaSyBodCoZXT1xsVY_erI_cT1XGoWeBm6bx_I",
    "elements": [
      {
        "label": "Main Building",
        "lat": 42.3187286,
        "lng": -122.8325486
      },
      {
        "label": "Roof System",
        "lat": 42.3187605,
        "lng": -122.8325057
      },
      {
        "label": "Solar Panel System",
        "lat": 42.3186967,
        "lng": -122.8324628
      },
      {
        "label": "Vehicle Parking Area",
        "lat": 42.3185369,
        "lng": -122.8327203
      },
      {
        "label": "Pedestrian Walkways",
        "lat": 42.318473,
        "lng": -122.8323769
      },
      {
        "label": "Landscaped Area",
        "lat": 42.3186008,
        "lng": -122.8326344
      }
    ],
    "considerations": [
      {
        "label": "Single Access Point",
        "lat": 42.3184411,
        "lng": -122.8324199
      },
      {
        "label": "Multiple Structures",
        "lat": 42.3187605,
        "lng": -122.8325486
      }
    ],
    "recommendations": "Ensuring that clear and unobstructed access routes are maintained to the main building while optimizing maneuverability space around the solar panel system and any associated structures may enhance emergency responder efficiency. Clearly demarcating pedestrian walkways and vehicle parking areas can assist in delimiting responder pathways, improving navigation and operational movement across the property. Creating signage at the single access point to indicate the layout of multiple structures and designate priority movement corridors could further facilitate quick and organized response activities. Implementing lighting solutions or reflective markers along the access routes may enhance visibility during low-light conditions, assisting responders in prompt navigation and resource deployment. 이러한 개선 노력들은 응급 대응을 위한 효과적인 관리를 지원하고 전반적인 대응 효율성을 높일 수 있는 겁니다."
  },
  "wildfire": {
    "nadir_url": "https://maps.googleapis.com/maps/api/staticmap?center=42.3187286,-122.8325486&zoom=20&size=640x640&maptype=satellite&markers=color:orange|label:1|42.3188883,-122.8327632&markers=color:orange|label:2|42.3186647,-122.8327632&markers=color:orange|label:3|42.3185689,-122.8327632&markers=color:orange|label:4|42.3185689,-122.8325486&key=AIzaSyBodCoZXT1xsVY_erI_cT1XGoWeBm6bx_I",
    "conditions": [
      {
        "label": "Vegetation Adjacent to Structure",
        "lat": 42.318505,
        "lng": -122.8325057
      },
      {
        "label": "Shrubs Under Trees",
        "lat": 42.318505,
        "lng": -122.8328919
      },
      {
        "label": "Vegetated Perimeter",
        "lat": 42.3190161,
        "lng": -122.8322053
      },
      {
        "label": "Open Terrain",
        "lat": 42.3184411,
        "lng": -122.832334
      },
      {
        "label": "Defensible Space",
        "lat": 42.3187286,
        "lng": -122.8325486
      },
      {
        "label": "Tree Cluster",
        "lat": 42.3189842,
        "lng": -122.8322053
      },
      {
        "label": "Limited Side Access",
        "lat": 42.3187286,
        "lng": -122.8329348
      }
    ],
    "recommendations": "To improve the property's wildfire preparedness, increasing separation between vegetation and structures would enhance defensible space, reducing opportunities for fire to spread directly to the building. Managing shrubs located under trees can decrease vertical fuel continuity, thus limiting the potential for fire to climb into tree canopies. The presence of a vegetated perimeter suggests the importance of preserving or expanding open terrain around the residence, which could serve as a natural fuel break, reducing the chances of fire encroachment. Given the limited side access, ensuring that access routes are clear and well-maintained may support firefighter access and suppression efforts. Additionally, strategic thinning of the tree cluster could reduce fuel density and enhance both defensible space and long-term wildfire resilience. These actions collectively support a balance between vegetation management and maintaining open areas, contributing to overall property safety and preparedness."
  },
  "lat": 42.3187286,
  "lng": -122.8325486
}