{
  "name": "BADER RES (JORDAN & KARA)",
  "address": "56161 SCHOOL HOUSE RD, BEND, OR 97707",
  "hoa": "",
  "nadir_raw": "https://maps.googleapis.com/maps/api/staticmap?center=43.8409703,-121.4428943&zoom=19&size=640x640&maptype=satellite&key=AIzaSyBodCoZXT1xsVY_erI_cT1XGoWeBm6bx_I",
  "fr": {
    "nadir_url": "",
    "elements": [
      {
        "label": "Main Building",
        "lat": 43.8409703,
        "lng": -121.4428943
      },
      {
        "label": "Driveway",
        "lat": 43.8408207,
        "lng": -121.442963
      },
      {
        "label": "Vehicle Parking Area",
        "lat": 43.8407709,
        "lng": -121.4428256
      },
      {
        "label": "Landscaped Area",
        "lat": 43.8410949,
        "lng": -121.4428943
      },
      {
        "label": "Pedestrian Walkways",
        "lat": 43.8408706,
        "lng": -121.4430316
      }
    ],
    "considerations": [
      {
        "label": "Dense Vegetation",
        "lat": 43.8412196,
        "lng": -121.4432376
      },
      {
        "label": "Single Access Point",
        "lat": 43.8408207,
        "lng": -121.442963
      },
      {
        "label": "Limited Side Access",
        "lat": 43.8410202,
        "lng": -121.44286
      }
    ],
    "recommendations": "Enhancing the delineation of the single access point with reflective signage and lighting could improve the visibility and identification of entry routes for emergency responders. Strategically managing dense vegetation near access routes and pedestrian walkways may facilitate movement and reduce impediments during response operations. Expanding clear zones around the main building for vehicle maneuvering and apparatus staging can support more efficient deployment and navigation. Establishing additional access routes or enhancing current pathways could facilitate responder circulation and operational flexibility. Designating specific zones in the vehicle parking area for emergency equipment staging may assist in maintaining effectiveness during critical response periods."
  },
  "wildfire": {
    "nadir_url": "",
    "conditions": [
      {
        "label": "Scattered Trees",
        "lat": 43.8408457,
        "lng": -121.442551
      },
      {
        "label": "Vegetation Adjacent to Structure",
        "lat": 43.8409703,
        "lng": -121.4426196
      },
      {
        "label": "Vegetated Perimeter",
        "lat": 43.8412196,
        "lng": -121.4422077
      },
      {
        "label": "Defensible Space",
        "lat": 43.8409703,
        "lng": -121.4427226
      },
      {
        "label": "Vegetation Between Structures",
        "lat": 43.840721,
        "lng": -121.4423793
      },
      {
        "label": "Scattered Shrubs",
        "lat": 43.8410949,
        "lng": -121.442551
      },
      {
        "label": "Surrounding Open Space",
        "lat": 43.8409703,
        "lng": -121.442036
      },
      {
        "label": "Tree Cluster",
        "lat": 43.8409204,
        "lng": -121.4424823
      },
      {
        "label": "Open Terrain",
        "lat": 43.8409703,
        "lng": -121.4432376
      },
      {
        "label": "Vegetation Adjacent to Fence",
        "lat": 43.8408706,
        "lng": -121.4424137
      }
    ],
    "recommendations": "Enhancing defensible space could be supported by increasing separation between scattered trees, particularly near the residence and other structures. Managing and potentially reducing vegetation that is situated adjacent to the structure and along property fences may help to limit potential exposure to fire. Ensuring that the vegetation between structures is well-maintained and less continuous could aid in minimizing fuel pathways. The surrounding open space could be preserved and leveraged as a natural fuel break, assisting in reducing the likelihood of fire spread. Reducing the density of vegetation and shrubs, especially in tree clusters, could enhance wildfire resilience. Regular maintenance of the access routes through these open terrains, along with targeted vegetation management, may improve firefighter access and support suppression efforts. Consistent and strategic vegetation management in these areas could support a long-term approach to wildfire preparedness."
  },
  "lat": 43.8409703,
  "lng": -121.4428943
}