{
  "name": "BAXTER AUTO PARTS/B17",
  "address": "61219 SOUTH HWY 97, BEND, OR 97702",
  "hoa": "",
  "nadir_raw": "https://maps.googleapis.com/maps/api/staticmap?center=44.0226047,-121.316102&zoom=19&size=640x640&maptype=satellite&key=AIzaSyBodCoZXT1xsVY_erI_cT1XGoWeBm6bx_I",
  "fr": {
    "nadir_url": "",
    "elements": [
      {
        "label": "Main Building",
        "lat": 44.0226047,
        "lng": -121.316102
      },
      {
        "label": "Vehicle Parking Area",
        "lat": 44.022729,
        "lng": -121.3158874
      }
    ],
    "considerations": [
      {
        "label": "Limited Rear Access",
        "lat": 44.0226979,
        "lng": -121.3163595
      }
    ],
    "recommendations": "Enhancing emergency response effectiveness on this property could involve optimizing clear and direct access routes to the main building and ensuring unobstructed pathways throughout the vehicle parking area. Expanding access to the rear of the property or enhancing the existing access points may assist responders in navigating more efficiently. It would be beneficial to maintain clear visibility and mobility through the landscaped areas by managing vegetation and ensuring sidewalks remain clear to support unobstructed movement for emergency personnel. These measures could facilitate better responder staging and navigation during emergencies, contributing to more effective operations across the property."
  },
  "wildfire": {
    "nadir_url": "",
    "conditions": [
      {
        "label": "Vegetated Perimeter",
        "lat": 44.0228532,
        "lng": -121.3161449
      },
      {
        "label": "Vegetation Adjacent to Structure",
        "lat": 44.02276,
        "lng": -121.3160591
      },
      {
        "label": "Vegetation Adjacent to Structure",
        "lat": 44.0225736,
        "lng": -121.3159303
      }
    ],
    "recommendations": "Enhancing defensible space around the structures by creating separation between the vegetation and the building exterior could potentially reduce structure exposure to wildfire. Regular maintenance to remove or trim vegetation adjacent to the structure may decrease fuel continuity and lessen the likelihood of fire spread directly to the building. Additionally, managing the vegetation along the perimeter by strategically thinning dense areas and increasing spacing between plants can help interrupt fire pathways and diminish the opportunity for a continuous burn. Preserving open spaces towards the perimeter and between vegetation clusters could further support long-term wildfire resilience by establishing natural firebreaks, reducing the intensity of flames that may approach structures. Regularly maintaining these areas will assist in sustaining reduced vegetation concentrations and support ongoing preparedness and suppression efforts."
  },
  "lat": 44.0226047,
  "lng": -121.316102
}