{
  "name": "CHILCUTT RES (ED & MERRI)",
  "address": "21655 PALOMA DR, BEND, OR 97701",
  "hoa": "",
  "nadir_raw": "https://maps.googleapis.com/maps/api/staticmap?center=44.0784797,-121.2382664&zoom=19&size=640x640&maptype=satellite&key=AIzaSyBodCoZXT1xsVY_erI_cT1XGoWeBm6bx_I",
  "fr": {
    "nadir_url": "",
    "elements": [
      {
        "label": "Main Building",
        "lat": 44.07843,
        "lng": -121.2380947
      },
      {
        "label": "Landscaped Area",
        "lat": 44.0781072,
        "lng": -121.2379917
      },
      {
        "label": "Perimeter Fencing",
        "lat": 44.0782314,
        "lng": -121.2382664
      }
    ],
    "considerations": [],
    "recommendations": "Ensuring clear identification of the property's access points could improve responder navigation and operational efficiency. Removing potential obstructions around the main building’s perimeter may assist emergency personnel in their movement and staging efforts. Examining and maintaining sections of fencing that do not interfere with access routes could facilitate smoother ingress and egress for responders. Incorporating visible signage to indicate key entry points and any access restrictions may enhance emergency operations by providing clear guidance upon arrival. Minimizing visual barriers in landscaped areas could also support enhanced situational awareness, aiding responders in swiftly locating critical areas for their operations."
  },
  "wildfire": {
    "nadir_url": "",
    "conditions": [
      {
        "label": "Dense Tree Canopy",
        "lat": 44.0786287,
        "lng": -121.2384037
      },
      {
        "label": "Vegetation Adjacent to Structure",
        "lat": 44.078579,
        "lng": -121.2383351
      },
      {
        "label": "Defensible Space",
        "lat": 44.0784797,
        "lng": -121.2382664
      },
      {
        "label": "Vegetated Access Route",
        "lat": 44.0782811,
        "lng": -121.2380947
      },
      {
        "label": "Open Fuel Break",
        "lat": 44.0786039,
        "lng": -121.2379231
      }
    ],
    "recommendations": "Maintaining and expanding the open terrain and fuel breaks around the property can support wildfire resilience by reducing fuel continuity and improving defensible space. Where vegetation is adjacent to the structure, increasing the separation between combustible materials and buildings could reduce potential exposure to wildfire. Selective management of scattered trees and shrubs to create breaks in canopy density and continuity may help to limit fire spread across the landscape. Managing vegetated areas along the access route may enhance firefighter access and support suppression efforts. Preserving the existing open fuel breaks and fuel mosaic can further contribute to a balanced landscape, potentially improving long-term wildfire preparedness and property resilience."
  },
  "lat": 44.0784797,
  "lng": -121.2382664
}