{
  "name": "DEHM RES (TOM & NELDA)",
  "address": "3374 NW CONRAD DR, BEND, OR 97701",
  "hoa": "",
  "nadir_raw": "https://maps.googleapis.com/maps/api/staticmap?center=44.085183,-121.3507519&zoom=19&size=640x640&maptype=satellite&key=AIzaSyBodCoZXT1xsVY_erI_cT1XGoWeBm6bx_I",
  "fr": {
    "nadir_url": "",
    "elements": [
      {
        "label": "Main Building",
        "lat": 44.085183,
        "lng": -121.3507519
      },
      {
        "label": "Roof System",
        "lat": 44.085183,
        "lng": -121.3507519
      },
      {
        "label": "Front Driveway",
        "lat": 44.0850278,
        "lng": -121.3509236
      },
      {
        "label": "Landscaped Area",
        "lat": 44.0851209,
        "lng": -121.3508377
      },
      {
        "label": "Pedestrian Walkways",
        "lat": 44.0850899,
        "lng": -121.3509665
      }
    ],
    "considerations": [
      {
        "label": "Limited Rear Access",
        "lat": 44.085183,
        "lng": -121.3505802
      },
      {
        "label": "Dense Vegetation",
        "lat": 44.0852451,
        "lng": -121.3506661
      },
      {
        "label": "Single Access Point",
        "lat": 44.0849968,
        "lng": -121.3510094
      }
    ],
    "recommendations": "Enhancing emergency responder operations on this property could involve several practical adjustments. Consider creating an additional access point to improve responder entry and exit options, which may enhance flow and operational efficacy during an emergency. Reducing the density of surrounding vegetation, particularly near the primary access routes and the building perimeter, could facilitate easier navigation and enhance visibility for responders. Expanding the front driveway or ensuring it remains unobstructed may also support staging activities and the movement of emergency vehicles. To further assist in navigation, ensuring that pedestrian walkways are clearly marked and well-maintained could provide responders with efficient pathways to key areas. By implementing these improvements, emergency response teams could potentially achieve better access, movement, and visibility during their operations on the property."
  },
  "wildfire": {
    "nadir_url": "",
    "conditions": [
      {
        "label": "Vegetation Adjacent to Structure",
        "lat": 44.085183,
        "lng": -121.3506661
      },
      {
        "label": "Open Terrain",
        "lat": 44.0850589,
        "lng": -121.3504944
      },
      {
        "label": "Vegetation Between Structures",
        "lat": 44.0849968,
        "lng": -121.3507519
      },
      {
        "label": "Defensible Space",
        "lat": 44.0852451,
        "lng": -121.3508377
      },
      {
        "label": "Limited Side Access",
        "lat": 44.085183,
        "lng": -121.3505802
      }
    ],
    "recommendations": "Enhancing defensible space through the careful management of vegetation adjacent to the structure and between structures could play a significant role in reducing potential wildfire exposure. Pruning lower branches and maintaining separation between tree clusters and the property may help decrease fuel continuity. Creating and preserving open spaces around the residence, particularly in areas of open terrain, could further break up fuel continuity. Vegetation management along the vegetated perimeter should focus on reducing concentrations of combustible vegetation while ensuring that open areas remain clear, which may improve opportunities for successful suppression and increase long-term resilience. Improving side access by reducing vegetation concentrations in these areas may support firefighter access and suppression operations, contributing to overall property preparedness."
  },
  "lat": 44.085183,
  "lng": -121.3507519
}