{
  "name": "DUDLEY RES (LYDIA & PAUL)",
  "address": "21072 AVERY LANE, BEND, OR 97702",
  "hoa": "",
  "nadir_raw": "https://maps.googleapis.com/maps/api/staticmap?center=44.031341,-121.2701856&zoom=19&size=640x640&maptype=satellite&key=AIzaSyBodCoZXT1xsVY_erI_cT1XGoWeBm6bx_I",
  "fr": {
    "nadir_url": "",
    "elements": [
      {
        "label": "Main Building",
        "lat": 44.031341,
        "lng": -121.2701684
      },
      {
        "label": "Detached Structure",
        "lat": 44.0315274,
        "lng": -121.2699882
      },
      {
        "label": "Front Driveway",
        "lat": 44.0311236,
        "lng": -121.2700998
      },
      {
        "label": "Landscaped Area",
        "lat": 44.0315895,
        "lng": -121.2701856
      }
    ],
    "considerations": [
      {
        "label": "Multiple Structures",
        "lat": 44.0314342,
        "lng": -121.2700998
      },
      {
        "label": "Limited Rear Access",
        "lat": 44.0310925,
        "lng": -121.2701856
      }
    ],
    "recommendations": "Enhancing responder access and operational efficiency around the property could be facilitated by ensuring both structural and vehicular access points are well-marked and easily navigable. Providing clear pathways through the landscaped area and maintaining unobstructed routes in the open green space can support both movement and staging for emergency personnel. Installing proper signage at the front driveway and any entry points to delineate access routes and structure orientations could assist in navigation and rapid response activities. Additional rear access pathways or routes around the structures may enhance responder entry and exit capabilities during emergency operations, reducing response times and improving safety for both responders and property occupants."
  },
  "wildfire": {
    "nadir_url": "",
    "conditions": [
      {
        "label": "Tree Cluster",
        "lat": 44.0311857,
        "lng": -121.2702714
      },
      {
        "label": "Vegetation Adjacent to Structure",
        "lat": 44.0312789,
        "lng": -121.2702285
      },
      {
        "label": "Vegetation Adjacent to Structure",
        "lat": 44.0313721,
        "lng": -121.2700569
      },
      {
        "label": "Defensible Space",
        "lat": 44.0312168,
        "lng": -121.2700998
      },
      {
        "label": "Open Terrain",
        "lat": 44.0314652,
        "lng": -121.2699281
      }
    ],
    "recommendations": "Enhancing defensible space by maintaining clear separation between the tree cluster and nearby structures, as well as managing vegetation directly adjacent to structures, could reduce the pathway for fire to spread to the buildings. Scattered shrubs should be evaluated and selectively thinned to break up fuel continuity, particularly ensuring they are not in proximity to structural features. The existing open terrain provides a potential buffer against fire spread; maintaining this openness and reducing vegetation density at the perimeters could help limit the intensity and reach of a wildfire. Vegetation along the property's perimeter should be strategically managed to create fuel breaks, supporting both property protection and long-term wildfire resilience. Ensuring the access routes remain clear of overgrown vegetation will facilitate firefighter ingress and egress, further assisting suppression efforts if needed."
  },
  "lat": 44.031341,
  "lng": -121.2701856
}