{
  "name": "GRIDIRON INSURANCE UNDERWRITERS",
  "address": "532 SW 13TH STREET STE 103, BEND, OR 97702",
  "hoa": "",
  "nadir_raw": "https://maps.googleapis.com/maps/api/staticmap?center=44.0435592,-121.3298631&zoom=19&size=640x640&maptype=satellite&key=AIzaSyBodCoZXT1xsVY_erI_cT1XGoWeBm6bx_I",
  "fr": {
    "nadir_url": "",
    "elements": [
      {
        "label": "Main Building",
        "lat": 44.0435716,
        "lng": -121.3298459
      },
      {
        "label": "Roof System",
        "lat": 44.0435716,
        "lng": -121.3298459
      },
      {
        "label": "Vehicle Parking Area",
        "lat": 44.0437455,
        "lng": -121.3296914
      }
    ],
    "considerations": [
      {
        "label": "Limited Side Access",
        "lat": 44.0435592,
        "lng": -121.3296056
      }
    ],
    "recommendations": "Improving emergency response effectiveness at this property could be supported by enhancing the accessibility and visibility of key areas. Establishing a clear and wide path from the single access point to the main building may facilitate smoother entry and movement for responders. Managing dense vegetation along the driveway and around the structure would assist in maintaining unobstructed lines of sight, increasing visibility, and reducing potential obstructions. Additionally, clearly delineating the vehicle parking area to prevent blockage of the driveway and main access routes could support staging and maneuverability for emergency vehicles. Enhancing side access, where feasible, might also provide responders with alternative routes to approach and navigate the property efficiently."
  },
  "wildfire": {
    "nadir_url": "",
    "conditions": [
      {
        "label": "Scattered Trees",
        "lat": 44.0436834,
        "lng": -121.3298631
      },
      {
        "label": "Vegetation Adjacent to Structure",
        "lat": 44.0435903,
        "lng": -121.3298202
      },
      {
        "label": "Defensible Space",
        "lat": 44.0435592,
        "lng": -121.3298631
      }
    ],
    "recommendations": "Enhancing defensible space could be achieved by increasing separation between tree clusters and structures, while managing the scattered trees to minimize fuel continuity. Pruning or relocating vegetation adjacent to structures would reduce potential exposure to flames and embers. Preserving existing defensible space and actively maintaining it ensures greater separation from potential fire sources. Addressing the vegetated perimeter by thinning or selectively removing vegetation can limit fire spread and provide a buffer. Emphasizing vegetation management along the access route not only enhances safety for evacuation but also improves firefighter accessibility and movement. By focusing on reducing vegetation concentrations around the property and maintaining open spaces, the resilience of the property against wildfires may be improved."
  },
  "lat": 44.0435592,
  "lng": -121.3298631
}