{
  "name": "GRIDIRON INSURANCE UNDERWRITERS",
  "address": "532 SW 13TH STREET STE 103, BEND, OR 97702",
  "hoa": "",
  "nadir_raw": "https://maps.googleapis.com/maps/api/staticmap?center=44.0435592,-121.3298631&zoom=19&size=640x640&maptype=satellite&key=AIzaSyBodCoZXT1xsVY_erI_cT1XGoWeBm6bx_I",
  "fr": {
    "nadir_url": "",
    "elements": [
      {
        "label": "Main Building",
        "lat": 44.0435592,
        "lng": -121.3298631
      },
      {
        "label": "Roof System",
        "lat": 44.0435592,
        "lng": -121.3298631
      },
      {
        "label": "Pedestrian Walkways",
        "lat": 44.0436834,
        "lng": -121.3299489
      },
      {
        "label": "Vehicle Parking Area",
        "lat": 44.0438076,
        "lng": -121.3298631
      }
    ],
    "considerations": [
      {
        "label": "Limited Side Access",
        "lat": 44.0435592,
        "lng": -121.3297344
      }
    ],
    "recommendations": "Enhancing emergency responder effectiveness on this property could involve creating additional entry points to supplement the existing single access point. This adjustment may facilitate improved navigation and reduce response times by providing alternative routes for vehicle and personnel ingress and egress. Improving side access through the strategic placement of walkways and trimming of vegetation near critical transit points may support more efficient movement around the structure. Clear and unobstructed pathways around the building could ensure easier access for emergency personnel. Consideration for signage and lighting may help to demarcate access routes and provide increased visibility of the main building and points of interest. Optimizing vehicle parking arrangements to prevent obstruction and maintain a clear approach for emergency vehicles could further aid operations."
  },
  "wildfire": {
    "nadir_url": "",
    "conditions": [
      {
        "label": "Scattered Trees",
        "lat": 44.0436834,
        "lng": -121.3297773
      },
      {
        "label": "Vegetation Adjacent to Structure",
        "lat": 44.0435468,
        "lng": -121.3298459
      },
      {
        "label": "Open Terrain",
        "lat": 44.0437145,
        "lng": -121.329906
      },
      {
        "label": "Tree Cluster",
        "lat": 44.0437455,
        "lng": -121.3296914
      },
      {
        "label": "Vegetation Adjacent to Access Route",
        "lat": 44.043435,
        "lng": -121.3299489
      },
      {
        "label": "Open Green Space",
        "lat": 44.043466,
        "lng": -121.3298631
      }
    ],
    "recommendations": "Enhancing defensible space and protecting the property from wildfire exposure could be achieved by increasing the separation between the structure and nearby vegetation. Managing the vegetation located adjacent to the access route and the structure itself will support both firefighter access and suppression efforts. Reducing the continuity of vegetation along the vegetated perimeter and around tree clusters might limit fire spread, contributing to overall defensible space. Keeping the open terrain and green space maintained and free of excessive vegetation concentrations can bolster this effect, improving wildfire resilience. In addition, managing vegetation around the fence line can further reduce the possibility of fire bridging to and impacting the property, thereby supporting long-term wildfire preparedness."
  },
  "lat": 44.0435592,
  "lng": -121.3298631
}