{
  "name": "Highlands 10",
  "address": "61654 Belmore Loop, Bend, OR 97702",
  "hoa": "highlands",
  "nadir_raw": "https://maps.googleapis.com/maps/api/staticmap?center=44.0376863,-121.3713554&zoom=18&size=640x640&maptype=satellite&key=AIzaSyBodCoZXT1xsVY_erI_cT1XGoWeBm6bx_I",
  "fr": {
    "nadir_url": "https://maps.googleapis.com/maps/api/staticmap?center=44.0376863,-121.3713554&zoom=18&size=640x640&maptype=satellite&markers=color:green|label:1|44.0376863,-121.3713554&markers=color:green|label:2|44.0378105,-121.3712867&markers=color:green|label:3|44.0373136,-121.3716987&markers=color:green|label:4|44.0370651,-121.3710121&markers=color:green|label:5|44.0370651,-121.3713554&markers=color:green|label:6|44.0374378,-121.3711837&markers=color:red|label:A|44.0370651,-121.3716987&markers=color:red|label:B|44.0376863,-121.3706688&key=AIzaSyBodCoZXT1xsVY_erI_cT1XGoWeBm6bx_I",
    "elements": [
      {
        "label": "Main Building",
        "lat": 44.0376863,
        "lng": -121.3713554
      },
      {
        "label": "Pedestrian Walkways",
        "lat": 44.0378105,
        "lng": -121.3715271
      }
    ],
    "considerations": [
      {
        "label": "Dense Vegetation",
        "lat": 44.0369409,
        "lng": -121.3711837
      }
    ],
    "recommendations": "Enhancing emergency response effectiveness could be achieved by diversifying access points on the property to reduce reliance on a single entryway, thus facilitating quicker and more efficient access for responders. Trimming or managing dense vegetation around critical areas of the property may enhance visibility and permit clearer routes for responders, aiding in navigation and movement. Keeping pedestrian walkways clear can support swift and unobstructed access to the main building while also discouraging unnecessary congestion during emergency operations. Additionally, maintaining clear front driveways and ensuring that landscaped areas do not impede access routes may further support effective staging and overall responder operations."
  },
  "wildfire": {
    "nadir_url": "https://maps.googleapis.com/maps/api/staticmap?center=44.0376863,-121.3713554&zoom=18&size=640x640&maptype=satellite&markers=color:orange|label:1|44.0370651,-121.3714241&markers=color:orange|label:2|44.0374378,-121.3710121&markers=color:orange|label:3|44.0383075,-121.3716987&markers=color:orange|label:4|44.0376863,-121.3713554&markers=color:orange|label:5|44.0370651,-121.3713554&markers=color:orange|label:6|44.0379348,-121.3711837&markers=color:orange|label:7|44.0371894,-121.3713554&markers=color:orange|label:8|44.0378105,-121.3715271&markers=color:orange|label:9|44.0376863,-121.3706688&markers=color:orange|label:0|44.0383075,-121.3716987&key=AIzaSyBodCoZXT1xsVY_erI_cT1XGoWeBm6bx_I",
    "conditions": [
      {
        "label": "Open Terrain",
        "lat": 44.0373136,
        "lng": -121.3713554
      },
      {
        "label": "Defensible Space",
        "lat": 44.0376863,
        "lng": -121.3713554
      },
      {
        "label": "Vegetation Adjacent to Structure",
        "lat": 44.0376366,
        "lng": -121.3714241
      },
      {
        "label": "Vegetated Perimeter",
        "lat": 44.0384317,
        "lng": -121.3710121
      },
      {
        "label": "Open Green Space",
        "lat": 44.0378105,
        "lng": -121.3710121
      },
      {
        "label": "Vegetated Access Route",
        "lat": 44.038556,
        "lng": -121.372042
      }
    ],
    "recommendations": "Enhancing defensible space around the property can be achieved by managing vegetation adjacent to the structure, possibly by creating greater separation between trees and the building. Addressing the concentration of trees within clusters by selectively thinning could help reduce fuel continuity and improve the potential for slowing fire spread. Encouraging the maintenance of open green spaces and preserving the existing open terrain around the property can further support this goal. Improving the vegetation management along the access route would aid in ensuring efficient firefighter access, should it be required. Consistent attention to clearing excess vegetation along the perimeter and maintaining these open areas could contribute to greater wildfire resilience and overall property preparedness."
  },
  "lat": 44.0376863,
  "lng": -121.3713554
}