{
  "name": "Highlands 21",
  "address": "18820 Macalpine Loop, Bend, OR 97702",
  "hoa": "highlands",
  "nadir_raw": "https://maps.googleapis.com/maps/api/staticmap?center=44.0442591,-121.3823549&zoom=18&size=640x640&maptype=satellite&key=AIzaSyBodCoZXT1xsVY_erI_cT1XGoWeBm6bx_I",
  "fr": {
    "nadir_url": "https://maps.googleapis.com/maps/api/staticmap?center=44.0442591,-121.3823549&zoom=18&size=640x640&maptype=satellite&markers=color:green|label:1|44.0442094,-121.3822862&markers=color:green|label:2|44.0440107,-121.3818399&markers=color:green|label:3|44.0443833,-121.3821832&markers=color:red|label:A|44.0438864,-121.3816683&markers=color:red|label:B|44.0441349,-121.3823549&key=AIzaSyBodCoZXT1xsVY_erI_cT1XGoWeBm6bx_I",
    "elements": [
      {
        "label": "Main Building",
        "lat": 44.0442591,
        "lng": -121.3823549
      },
      {
        "label": "Front Driveway",
        "lat": 44.0437622,
        "lng": -121.3820802
      },
      {
        "label": "Landscaped Area",
        "lat": 44.0445075,
        "lng": -121.3823549
      },
      {
        "label": "Perimeter Fencing",
        "lat": 44.0441349,
        "lng": -121.3824236
      }
    ],
    "considerations": [
      {
        "label": "Limited Rear Access",
        "lat": 44.0440107,
        "lng": -121.3823549
      }
    ],
    "recommendations": "Enhancing emergency response effectiveness at this property could be achieved by ensuring the main building is accessible from multiple points. Maintaining clear and wide access through the front driveway and reducing dense vegetation near its edges may enhance responder visibility and movement. Expanding or creating alternative paths around the landscaped area and the perimeter fencing could facilitate responder staging and navigation, particularly in emergencies that require quick access to different parts of the property. In addition, addressing the limited rear access, possibly by introducing a secondary access route or clearing a pathway through the existing perimeter fencing, may assist in providing responders with improved entry and exit options. These actions could support effective emergency operations by improving overall maneuverability and visibility."
  },
  "wildfire": {
    "nadir_url": "https://maps.googleapis.com/maps/api/staticmap?center=44.0442591,-121.3823549&zoom=18&size=640x640&maptype=satellite&markers=color:orange|label:1|44.0440107,-121.3823549&markers=color:orange|label:2|44.0440603,-121.3822862&markers=color:orange|label:3|44.0443833,-121.3821832&markers=color:orange|label:4|44.0438864,-121.3824236&markers=color:orange|label:5|44.0441349,-121.3822176&markers=color:orange|label:6|44.0436380,-121.3820116&markers=color:orange|label:7|44.0442591,-121.3823549&markers=color:orange|label:8|44.0436380,-121.3819429&markers=color:orange|label:9|44.0445075,-121.3821832&markers=color:orange|label:0|44.0440107,-121.3825266&key=AIzaSyBodCoZXT1xsVY_erI_cT1XGoWeBm6bx_I",
    "conditions": [
      {
        "label": "Dense Tree Canopy",
        "lat": 44.0440107,
        "lng": -121.3826982
      },
      {
        "label": "Scattered Trees",
        "lat": 44.0445075,
        "lng": -121.3814966
      },
      {
        "label": "Defensible Space",
        "lat": 44.0442591,
        "lng": -121.3823549
      },
      {
        "label": "Vegetation Adjacent to Structure",
        "lat": 44.0443088,
        "lng": -121.3822862
      },
      {
        "label": "Vegetation Between Structures",
        "lat": 44.0441349,
        "lng": -121.3820116
      },
      {
        "label": "Vegetated Access Route",
        "lat": 44.0441349,
        "lng": -121.3816683
      },
      {
        "label": "Open Terrain",
        "lat": 44.0433895,
        "lng": -121.3828699
      }
    ],
    "recommendations": "Reducing the density of the tree canopy and increasing separation between scattered trees could improve defensible space and reduce fuel continuity across the property. Managing vegetation adjacent to structures and between nearby structures would help to lower fire exposure and protect structural elements. Focus on maintaining clear and open areas near buildings and along the vegetated perimeter to support access and facilitate potential suppression efforts. Enhancing the defensible space around structures, coupled with strategic pruning and removal of combustible vegetation, can mitigate potential ignition sources. Maintaining a clear, vegetated access route is essential to ensure ease of access for firefighters and improve suppression capabilities. By preserving open terrain and managing vegetation concentrations, the property owners can contribute to long-term wildfire resilience and preparedness."
  },
  "lat": 44.0442591,
  "lng": -121.3823549
}