{
  "name": "H & S STATION 5034",
  "address": "3405 N HWY 97, BEND, OR 97701",
  "hoa": "",
  "nadir_raw": "https://maps.googleapis.com/maps/api/staticmap?center=44.0864227,-121.3065185&zoom=19&size=640x640&maptype=satellite&key=AIzaSyBodCoZXT1xsVY_erI_cT1XGoWeBm6bx_I",
  "fr": {
    "nadir_url": "",
    "elements": [
      {
        "label": "Main Building",
        "lat": 44.0864227,
        "lng": -121.3065185
      },
      {
        "label": "Vehicle Parking Area",
        "lat": 44.0863296,
        "lng": -121.3066043
      },
      {
        "label": "Landscaped Area",
        "lat": 44.086671,
        "lng": -121.3068618
      }
    ],
    "considerations": [
      {
        "label": "Limited Rear Access",
        "lat": 44.0866089,
        "lng": -121.3065185
      }
    ],
    "recommendations": "Enhancing emergency responder operations on the property could benefit from ensuring the single access point is clearly marked and unobstructed, which may facilitate rapid entry and egress for emergency vehicles. Establishing a clear and direct path from the street frontage through the parking area to the main building would support efficient navigation and responder movement. If feasible, creating a secondary access point or optimizing the current layout to allow for easier movement around the property could enhance overall emergency response effectiveness. Maintaining clear sightlines to the main building from the access point may assist responders in quickly identifying important areas during an emergency scenario. Properly marked zones for emergency vehicle staging could further support coordinated response activities."
  },
  "wildfire": {
    "nadir_url": "",
    "conditions": [
      {
        "label": "Vegetated Perimeter",
        "lat": 44.086671,
        "lng": -121.306776
      },
      {
        "label": "Open Terrain",
        "lat": 44.0866399,
        "lng": -121.3067331
      }
    ],
    "recommendations": "Increasing the separation between the vegetation on the perimeter and any nearby structures could enhance defensible space and minimize potential flame contact with the property. Managing the vegetated perimeter to reduce dense concentrations of flammable material can support a fuel break that aligns with maintaining open terrain. Ensuring that this open terrain remains clear of overgrown or unmanaged vegetation will help disrupt fuel continuity. By sustaining the open areas, there is an opportunity to restrict potential fire spread while concurrently aiding with long-term mitigation efforts. These actions could collectively foster a more resilient property and build readiness for potential wildfire exposure."
  },
  "lat": 44.0864227,
  "lng": -121.3065185
}