{
  "name": "BEND PSYCHIATRY",
  "address": "1569 SW NANCY WAY # 2, BEND, OR 97702",
  "hoa": "",
  "nadir_raw": "https://maps.googleapis.com/maps/api/staticmap?center=44.0414032,-121.3365176&zoom=19&size=640x640&maptype=satellite&key=AIzaSyBodCoZXT1xsVY_erI_cT1XGoWeBm6bx_I",
  "fr": {
    "nadir_url": "",
    "elements": [
      {
        "label": "Main Building",
        "lat": 44.0414032,
        "lng": -121.3365176
      },
      {
        "label": "Vehicle Parking Area",
        "lat": 44.0412169,
        "lng": -121.3366034
      },
      {
        "label": "Landscaped Area",
        "lat": 44.0415895,
        "lng": -121.3365176
      },
      {
        "label": "Roof System",
        "lat": 44.0414032,
        "lng": -121.3365176
      },
      {
        "label": "Sidewalk Network",
        "lat": 44.04131,
        "lng": -121.3366893
      }
    ],
    "considerations": [],
    "recommendations": "Enhancing emergency responder operations at the property might involve ensuring unobstructed access and movement through the vehicle parking area and sidewalk network. Maintaining clear and well-marked pathways could support efficient navigation and rapid deployment during emergencies. Additionally, ensuring that the landscaped area allows clear lines of sight around the property and does not encroach on access routes may facilitate emergency responder visibility and coordination efforts. Regular maintenance of the roof system to ensure no debris that could impede responder visibility or equipment deployment would be advantageous. Together, these measures could enhance the overall effectiveness of emergency response activities at the property."
  },
  "wildfire": {
    "nadir_url": "",
    "conditions": [
      {
        "label": "Vegetation Adjacent to Structure",
        "lat": 44.0413411,
        "lng": -121.3364318
      },
      {
        "label": "Scattered Shrubs",
        "lat": 44.0412169,
        "lng": -121.3364747
      },
      {
        "label": "Defensible Space",
        "lat": 44.0414032,
        "lng": -121.3365176
      }
    ],
    "recommendations": "Strategically managing the vegetation adjacent to the structure could enhance defensible space and reduce the immediate fuel load around the property. Consider increasing the separation between scattered shrubs and the structure to minimize fire intensity and radiant heat exposure. Reducing the continuity of vegetation along the perimeter will help establish a more effective buffer zone, thereby limiting the potential for fire spread toward the structure. Maintaining these open spaces through regular pruning and trimming of any overgrown vegetation will also support this effort. By focusing on these areas, the property owner can improve the overall defensible space, which may aid in protecting the structure from a wildfire while also providing areas more accessible to firefighters for suppression efforts."
  },
  "lat": 44.0414032,
  "lng": -121.3365176
}